{
"type": "FeatureCollection",
"crs": { "type": "name", "properties": { "name": "urn:ogc:def:crs:OGC:1.3:CRS84" } },

"features": [
{ "type": "Feature", "properties": { "A32_001": 1101, "A32_002": "札幌市立", "A32_003": "宮の森中学校", "address": "札幌市中央区宮の森1条16-5-1", "x": 141.295456, "y": 43.046640, "label": "宮の森中" }, "geometry": { "type": "Point", "coordinates": [ 141.2954564028, 43.046639956600004 ] } },
{ "type": "Feature", "properties": { "A32_001": 1101, "A32_002": "札幌市立", "A32_003": "啓明中学校", "address": "札幌市中央区南9条西22-2-1", "x": 141.322663, "y": 43.044305, "label": "啓明中" }, "geometry": { "type": "Point", "coordinates": [ 141.32266266889999, 43.044304950700003 ] } },
{ "type": "Feature", "properties": { "A32_001": 1101, "A32_002": "札幌市立", "A32_003": "向陵中学校", "address": "札幌市中央区北4条西28-1-30", "x": 141.313868, "y": 43.060463, "label": "向陵中" }, "geometry": { "type": "Point", "coordinates": [ 141.3138675189, 43.060462731299999 ] } },
{ "type": "Feature", "properties": { "A32_001": 1101, "A32_002": "札幌市立", "A32_003": "山鼻中学校", "address": "札幌市中央区南23条西13-1-1", "x": 141.340646, "y": 43.028805, "label": "山鼻中" }, "geometry": { "type": "Point", "coordinates": [ 141.340646, 43.028805 ] } },
{ "type": "Feature", "properties": { "A32_001": 1101, "A32_002": "札幌市立", "A32_003": "中央中学校", "address": "札幌市中央区北4条東3", "x": 141.359617, "y": 43.067695, "label": "中央中" }, "geometry": { "type": "Point", "coordinates": [ 141.359617, 43.067695 ] } },
{ "type": "Feature", "properties": { "A32_001": 1101, "A32_002": "札幌市立", "A32_003": "中島中学校", "address": "札幌市中央区南12条西7-2-1", "x": 141.349493, "y": 43.043788, "label": "中島中" }, "geometry": { "type": "Point", "coordinates": [ 141.349492954, 43.043788259300001 ] } },
{ "type": "Feature", "properties": { "A32_001": 1101, "A32_002": "札幌市立", "A32_003": "柏中学校", "address": "札幌市中央区南21条西5-1-2", "x": 141.353290, "y": 43.031394, "label": "柏中" }, "geometry": { "type": "Point", "coordinates": [ 141.35328979529999, 43.031393686900003 ] } },
{ "type": "Feature", "properties": { "A32_001": 1101, "A32_002": "札幌市立", "A32_003": "伏見中学校", "address": "札幌市中央区南16条西17-1-35", "x": 141.333321, "y": 43.037266, "label": "伏見中" }, "geometry": { "type": "Point", "coordinates": [ 141.33332059060001, 43.037266120699996 ] } },
{ "type": "Feature", "properties": { "A32_001": 1102, "A32_002": "札幌市立", "A32_003": "あいの里東中学校", "address": "札幌市北区あいの里2条7-14-1", "x": 141.409752, "y": 43.159915, "label": "あいの里東中" }, "geometry": { "type": "Point", "coordinates": [ 141.4097520203, 43.159915084300003 ] } },
{ "type": "Feature", "properties": { "A32_001": 1102, "A32_002": "札幌市立", "A32_003": "光陽中学校", "address": "札幌市北区新琴似4条11-7-1", "x": 141.313449, "y": 43.115113, "label": "光陽中" }, "geometry": { "type": "Point", "coordinates": [ 141.313449, 43.115113 ] } },
{ "type": "Feature", "properties": { "A32_001": 1102, "A32_002": "札幌市立", "A32_003": "篠路西中学校", "address": "札幌市北区篠路6条2-1-50", "x": 141.354598, "y": 43.150659, "label": "篠路西中" }, "geometry": { "type": "Point", "coordinates": [ 141.354597867, 43.150659 ] } },
{ "type": "Feature", "properties": { "A32_001": 1102, "A32_002": "札幌市立", "A32_003": "篠路中学校", "address": "札幌市北区篠路町篠路368", "x": 141.372943, "y": 43.156934, "label": "篠路中" }, "geometry": { "type": "Point", "coordinates": [ 141.372943, 43.156934 ] } },
{ "type": "Feature", "properties": { "A32_001": 1102, "A32_002": "札幌市立", "A32_003": "上篠路中学校", "address": "札幌市北区篠路町上篠路116-14", "x": 141.370917, "y": 43.134908, "label": "上篠路中" }, "geometry": { "type": "Point", "coordinates": [ 141.370917, 43.134908 ] } },
{ "type": "Feature", "properties": { "A32_001": 1102, "A32_002": "札幌市立", "A32_003": "新琴似中学校", "address": "札幌市北区新琴似7条4-1-1", "x": 141.329514, "y": 43.112886, "label": "新琴似中" }, "geometry": { "type": "Point", "coordinates": [ 141.329514, 43.112886 ] } },
{ "type": "Feature", "properties": { "A32_001": 1102, "A32_002": "札幌市立", "A32_003": "新琴似北中学校", "address": "札幌市北区新琴似10条10-2-46", "x": 141.324997, "y": 43.121918, "label": "新琴似北中" }, "geometry": { "type": "Point", "coordinates": [ 141.324997, 43.121918 ] } },
{ "type": "Feature", "properties": { "A32_001": 1102, "A32_002": "札幌市立", "A32_003": "新川西中学校", "address": "札幌市北区新川4条15-1-1", "x": 141.299654, "y": 43.113004, "label": "新川西中" }, "geometry": { "type": "Point", "coordinates": [ 141.2996537953, 43.113003518699998 ] } },
{ "type": "Feature", "properties": { "A32_001": 1102, "A32_002": "札幌市立", "A32_003": "新川中学校", "address": "札幌市北区新川4条3-1-1", "x": 141.321878, "y": 43.099046, "label": "新川中" }, "geometry": { "type": "Point", "coordinates": [ 141.32187807170001, 43.099045581200002 ] } },
{ "type": "Feature", "properties": { "A32_001": 1102, "A32_002": "札幌市立", "A32_003": "太平中学校", "address": "札幌市北区太平8条2-1-1", "x": 141.350183, "y": 43.133934, "label": "太平中" }, "geometry": { "type": "Point", "coordinates": [ 141.35018256320001, 43.133933620800001 ] } },
{ "type": "Feature", "properties": { "A32_001": 1102, "A32_002": "札幌市立", "A32_003": "屯田中央中学校", "address": "札幌市北区屯田6条8-1-1", "x": 141.326876, "y": 43.134459, "label": "屯田中央中" }, "geometry": { "type": "Point", "coordinates": [ 141.32687567049999, 43.134459492600001 ] } },
{ "type": "Feature", "properties": { "A32_001": 1102, "A32_002": "札幌市立", "A32_003": "屯田北中学校", "address": "札幌市北区屯田9条4-2-1", "x": 141.339075, "y": 43.143135, "label": "屯田北中" }, "geometry": { "type": "Point", "coordinates": [ 141.339075, 43.143135 ] } },
{ "type": "Feature", "properties": { "A32_001": 1102, "A32_002": "札幌市立", "A32_003": "北辰中学校", "address": "札幌市北区北18条西2-2-1", "x": 141.348501, "y": 43.082670, "label": "北辰中" }, "geometry": { "type": "Point", "coordinates": [ 141.348500884, 43.08267 ] } },
{ "type": "Feature", "properties": { "A32_001": 1102, "A32_002": "札幌市立", "A32_003": "北陽中学校", "address": "札幌市北区北34条西7-3-1", "x": 141.334848, "y": 43.101118, "label": "北陽中" }, "geometry": { "type": "Point", "coordinates": [ 141.33484803069999, 43.101118441799997 ] } },
{ "type": "Feature", "properties": { "A32_001": 1103, "A32_002": "札幌市立", "A32_003": "栄中学校", "address": "札幌市東区北46条東6-1-1", "x": 141.352234, "y": 43.116265, "label": "栄中" }, "geometry": { "type": "Point", "coordinates": [ 141.35223365190001, 43.1162653003 ] } },
{ "type": "Feature", "properties": { "A32_001": 1103, "A32_002": "札幌市立", "A32_003": "栄町中学校", "address": "札幌市東区北36条東14-1-1", "x": 141.365801, "y": 43.105616, "label": "栄町中" }, "geometry": { "type": "Point", "coordinates": [ 141.36580072359999, 43.1056163529 ] } },
{ "type": "Feature", "properties": { "A32_001": 1103, "A32_002": "札幌市立", "A32_003": "栄南中学校", "address": "札幌市東区北36条東16-1-1", "x": 141.369694, "y": 43.106368, "label": "栄南中" }, "geometry": { "type": "Point", "coordinates": [ 141.3696942764, 43.106368236900003 ] } },
{ "type": "Feature", "properties": { "A32_001": 1103, "A32_002": "札幌市立", "A32_003": "丘珠中学校", "address": "札幌市東区丘珠町674", "x": 141.400991, "y": 43.120621, "label": "丘珠中" }, "geometry": { "type": "Point", "coordinates": [ 141.40099098409999, 43.120621216899998 ] } },
{ "type": "Feature", "properties": { "A32_001": 1103, "A32_002": "札幌市立", "A32_003": "元町中学校", "address": "札幌市東区北28条東20-1-1", "x": 141.380723, "y": 43.100081, "label": "元町中" }, "geometry": { "type": "Point", "coordinates": [ 141.38072270660001, 43.100081 ] } },
{ "type": "Feature", "properties": { "A32_001": 1103, "A32_002": "札幌市立", "A32_003": "札苗中学校", "address": "札幌市東区東苗穂7条1-1-1", "x": 141.405806, "y": 43.097007, "label": "札苗中" }, "geometry": { "type": "Point", "coordinates": [ 141.405806, 43.097007 ] } },
{ "type": "Feature", "properties": { "A32_001": 1103, "A32_002": "札幌市立", "A32_003": "札苗北中学校", "address": "札幌市東区東苗穂10条3-16-20", "x": 141.421298, "y": 43.100352, "label": "札苗北中" }, "geometry": { "type": "Point", "coordinates": [ 141.421298, 43.100352 ] } },
{ "type": "Feature", "properties": { "A32_001": 1103, "A32_002": "札幌市立", "A32_003": "札幌中学校", "address": "札幌市東区伏古8条1-1-28", "x": 141.389038, "y": 43.095311, "label": "札幌中" }, "geometry": { "type": "Point", "coordinates": [ 141.38903781229999, 43.095310915900001 ] } },
{ "type": "Feature", "properties": { "A32_001": 1103, "A32_002": "札幌市立", "A32_003": "東栄中学校", "address": "札幌市東区本町1条7-2-7", "x": 141.392888, "y": 43.075718, "label": "東栄中" }, "geometry": { "type": "Point", "coordinates": [ 141.3928876793, 43.075718252100003 ] } },
{ "type": "Feature", "properties": { "A32_001": 1103, "A32_002": "札幌市立", "A32_003": "美香保中学校", "address": "札幌市東区北17条東6-1-1", "x": 141.360616, "y": 43.083262, "label": "美香保中" }, "geometry": { "type": "Point", "coordinates": [ 141.36061565189999, 43.083262077599997 ] } },
{ "type": "Feature", "properties": { "A32_001": 1103, "A32_002": "札幌市立", "A32_003": "福移中学校", "address": "札幌市東区中沼町240", "x": 141.437855, "y": 43.151660, "label": "福移中" }, "geometry": { "type": "Point", "coordinates": [ 141.437855, 43.15166 ] } },
{ "type": "Feature", "properties": { "A32_001": 1103, "A32_002": "札幌市立", "A32_003": "北栄中学校", "address": "札幌市東区北33条東2-1-1", "x": 141.350015, "y": 43.100840, "label": "北栄中" }, "geometry": { "type": "Point", "coordinates": [ 141.3500146076, 43.100840322899998 ] } },
{ "type": "Feature", "properties": { "A32_001": 1103, "A32_002": "札幌市立", "A32_003": "明園中学校", "address": "札幌市東区北22条東12-1-1", "x": 141.366562, "y": 43.090517, "label": "明園中" }, "geometry": { "type": "Point", "coordinates": [ 141.36656241649999, 43.090517017800003 ] } },
{ "type": "Feature", "properties": { "A32_001": 1104, "A32_002": "札幌市立", "A32_003": "東白石中学校", "address": "札幌市白石区南郷通15北4-1", "x": 141.428550, "y": 43.035277, "label": "東白石中" }, "geometry": { "type": "Point", "coordinates": [ 141.42855007169999, 43.0352765672 ] } },
{ "type": "Feature", "properties": { "A32_001": 1104, "A32_002": "札幌市立", "A32_003": "日章中学校", "address": "札幌市白石区東札幌4条5-1-1", "x": 141.393057, "y": 43.048280, "label": "日章中" }, "geometry": { "type": "Point", "coordinates": [ 141.3930569403, 43.048279704899997 ] } },
{ "type": "Feature", "properties": { "A32_001": 1104, "A32_002": "札幌市立", "A32_003": "柏丘中学校", "address": "札幌市白石区平和通8北3-1", "x": 141.420437, "y": 43.047957, "label": "柏丘中" }, "geometry": { "type": "Point", "coordinates": [ 141.4204365802, 43.0479568254 ] } },
{ "type": "Feature", "properties": { "A32_001": 1104, "A32_002": "札幌市立", "A32_003": "白石中学校", "address": "札幌市白石区本郷通6南1-1", "x": 141.410257, "y": 43.043345, "label": "白石中" }, "geometry": { "type": "Point", "coordinates": [ 141.41025689439999, 43.043345223099998 ] } },
{ "type": "Feature", "properties": { "A32_001": 1104, "A32_002": "札幌市立", "A32_003": "米里中学校", "address": "札幌市白石区米里1条4-5-1", "x": 141.419396, "y": 43.070970, "label": "米里中" }, "geometry": { "type": "Point", "coordinates": [ 141.4193959557, 43.070970044 ] } },
{ "type": "Feature", "properties": { "A32_001": 1104, "A32_002": "札幌市立", "A32_003": "北都中学校", "address": "札幌市白石区川下749-56", "x": 141.441444, "y": 43.057198, "label": "北都中" }, "geometry": { "type": "Point", "coordinates": [ 141.441444, 43.057198 ] } },
{ "type": "Feature", "properties": { "A32_001": 1104, "A32_002": "札幌市立", "A32_003": "北白石中学校", "address": "札幌市白石区北郷6条3-5-1", "x": 141.418267, "y": 43.064473, "label": "北白石中" }, "geometry": { "type": "Point", "coordinates": [ 141.41826677829999, 43.064472963100002 ] } },
{ "type": "Feature", "properties": { "A32_001": 1104, "A32_002": "札幌市立", "A32_003": "幌東中学校", "address": "札幌市白石区菊水6条3-2-51", "x": 141.380505, "y": 43.057001, "label": "幌東中" }, "geometry": { "type": "Point", "coordinates": [ 141.3805049403, 43.057001420699997 ] } },
{ "type": "Feature", "properties": { "A32_001": 1105, "A32_002": "札幌市立", "A32_003": "あやめ野中学校", "address": "札幌市豊平区月寒東3条11-15-1", "x": 141.417060, "y": 43.029698, "label": "あやめ野中" }, "geometry": { "type": "Point", "coordinates": [ 141.41705986700001, 43.029698005299998 ] } },
{ "type": "Feature", "properties": { "A32_001": 1105, "A32_002": "札幌市立", "A32_003": "月寒中学校", "address": "札幌市豊平区月寒東2条2-4-54", "x": 141.398616, "y": 43.038742, "label": "月寒中" }, "geometry": { "type": "Point", "coordinates": [ 141.39861575419999, 43.0387420805 ] } },
{ "type": "Feature", "properties": { "A32_001": 1105, "A32_002": "札幌市立", "A32_003": "西岡中学校", "address": "札幌市豊平区西岡3条12-1-1", "x": 141.377453, "y": 42.997189, "label": "西岡中" }, "geometry": { "type": "Point", "coordinates": [ 141.377453266, 42.997189239900003 ] } },
{ "type": "Feature", "properties": { "A32_001": 1105, "A32_002": "札幌市立", "A32_003": "西岡北中学校", "address": "札幌市豊平区西岡3条8-1-1", "x": 141.383669, "y": 43.008293, "label": "西岡北中" }, "geometry": { "type": "Point", "coordinates": [ 141.38366891129999, 43.008292549 ] } },
{ "type": "Feature", "properties": { "A32_001": 1105, "A32_002": "札幌市立", "A32_003": "中の島中学校", "address": "札幌市豊平区中の島2条3-9-1", "x": 141.361494, "y": 43.034437, "label": "中の島中" }, "geometry": { "type": "Point", "coordinates": [ 141.36149410070001, 43.034436514799999 ] } },
{ "type": "Feature", "properties": { "A32_001": 1105, "A32_002": "札幌市立", "A32_003": "東月寒中学校", "address": "札幌市豊平区月寒東3条18-1-72", "x": 141.421439, "y": 43.019367, "label": "東月寒中" }, "geometry": { "type": "Point", "coordinates": [ 141.42143889760001, 43.019367183200004 ] } },
{ "type": "Feature", "properties": { "A32_001": 1105, "A32_002": "札幌市立", "A32_003": "八条中学校", "address": "札幌市豊平区豊平8条13-2-1", "x": 141.377114, "y": 43.040849, "label": "八条中" }, "geometry": { "type": "Point", "coordinates": [ 141.3771135632, 43.0408491492 ] } },
{ "type": "Feature", "properties": { "A32_001": 1105, "A32_002": "札幌市立", "A32_003": "平岸中学校", "address": "札幌市豊平区平岸1条21-3-1", "x": 141.357960, "y": 43.017784, "label": "平岸中" }, "geometry": { "type": "Point", "coordinates": [ 141.35795981230001, 43.017783512599998 ] } },
{ "type": "Feature", "properties": { "A32_001": 1105, "A32_002": "札幌市立", "A32_003": "羊丘中学校", "address": "札幌市豊平区福住1条3-16-1", "x": 141.397104, "y": 43.018348, "label": "羊丘中" }, "geometry": { "type": "Point", "coordinates": [ 141.3971036076, 43.0183476224 ] } },
{ "type": "Feature", "properties": { "A32_001": 1105, "A32_002": "札幌市立", "A32_003": "陵陽中学校", "address": "札幌市豊平区平岸6条11-1-25", "x": 141.380706, "y": 43.029716, "label": "陵陽中" }, "geometry": { "type": "Point", "coordinates": [ 141.3807061981, 43.029716312799998 ] } },
{ "type": "Feature", "properties": { "A32_001": 1106, "A32_002": "札幌市立", "A32_003": "常盤中学校", "address": "札幌市南区常盤2条2-21-1", "x": 141.348218, "y": 42.946884, "label": "常盤中" }, "geometry": { "type": "Point", "coordinates": [ 141.34821824580001, 42.946884252700002 ] } },
{ "type": "Feature", "properties": { "A32_001": 1106, "A32_002": "札幌市立", "A32_003": "真駒内曙中学校", "address": "札幌市南区真駒内曙町2-1-2", "x": 141.350117, "y": 42.999523, "label": "真駒内曙中" }, "geometry": { "type": "Point", "coordinates": [ 141.35011688399999, 42.999522988899997 ] } },
{ "type": "Feature", "properties": { "A32_001": 1106, "A32_002": "札幌市立", "A32_003": "真駒内中学校", "address": "札幌市南区真駒内幸町3", "x": 141.356316, "y": 42.989370, "label": "真駒内中" }, "geometry": { "type": "Point", "coordinates": [ 141.356316, 42.98937 ] } },
{ "type": "Feature", "properties": { "A32_001": 1106, "A32_002": "札幌市立", "A32_003": "澄川中学校", "address": "札幌市南区澄川6条6-1-10", "x": 141.372893, "y": 43.007656, "label": "澄川中" }, "geometry": { "type": "Point", "coordinates": [ 141.37289323210001, 43.0076556721 ] } },
{ "type": "Feature", "properties": { "A32_001": 1106, "A32_002": "札幌市立", "A32_003": "石山中学校", "address": "札幌市南区石山2条8-7-1", "x": 141.317523, "y": 42.959183, "label": "石山中" }, "geometry": { "type": "Point", "coordinates": [ 141.31752312969999, 42.9591833028 ] } },
{ "type": "Feature", "properties": { "A32_001": 1106, "A32_002": "札幌市立", "A32_003": "藻岩中学校", "address": "札幌市南区川沿7条3-4-1", "x": 141.330844, "y": 42.988296, "label": "藻岩中" }, "geometry": { "type": "Point", "coordinates": [ 141.33084362450001, 42.988296465200001 ] } },
{ "type": "Feature", "properties": { "A32_001": 1106, "A32_002": "札幌市立", "A32_003": "定山渓中学校", "address": "札幌市南区定山渓温泉西1-31", "x": 141.170773, "y": 42.972100, "label": "定山渓中" }, "geometry": { "type": "Point", "coordinates": [ 141.17077268579999, 42.972100129 ] } },
{ "type": "Feature", "properties": { "A32_001": 1106, "A32_002": "札幌市立", "A32_003": "藤野中学校", "address": "札幌市南区藤野5条6-3-1", "x": 141.291574, "y": 42.955900, "label": "藤野中" }, "geometry": { "type": "Point", "coordinates": [ 141.2915744094, 42.9559002548 ] } },
{ "type": "Feature", "properties": { "A32_001": 1106, "A32_002": "札幌市立", "A32_003": "南が丘中学校", "address": "札幌市南区南沢2条1-17-1", "x": 141.325251, "y": 42.984965, "label": "南が丘中" }, "geometry": { "type": "Point", "coordinates": [ 141.32525085660001, 42.984964839 ] } },
{ "type": "Feature", "properties": { "A32_001": 1106, "A32_002": "札幌市立", "A32_003": "簾舞中学校", "address": "札幌市南区簾舞3条3-3-33", "x": 141.266882, "y": 42.960700, "label": "簾舞中" }, "geometry": { "type": "Point", "coordinates": [ 141.26688162120001, 42.9607001973 ] } },
{ "type": "Feature", "properties": { "A32_001": 1107, "A32_002": "札幌市立", "A32_003": "宮の丘中学校", "address": "札幌市西区西野3条10-9-1", "x": 141.268419, "y": 43.081288, "label": "宮の丘中" }, "geometry": { "type": "Point", "coordinates": [ 141.26841897259999, 43.081288118899998 ] } },
{ "type": "Feature", "properties": { "A32_001": 1107, "A32_002": "札幌市立", "A32_003": "琴似中学校", "address": "札幌市西区山の手4条2-1-1", "x": 141.296611, "y": 43.071599, "label": "琴似中" }, "geometry": { "type": "Point", "coordinates": [ 141.296611, 43.071599406300002 ] } },
{ "type": "Feature", "properties": { "A32_001": 1107, "A32_002": "札幌市立", "A32_003": "手稲東中学校", "address": "札幌市西区西野2条5-3-1", "x": 141.280631, "y": 43.078023, "label": "手稲東中" }, "geometry": { "type": "Point", "coordinates": [ 141.28063146420001, 43.0780227829 ] } },
{ "type": "Feature", "properties": { "A32_001": 1107, "A32_002": "札幌市立", "A32_003": "西野中学校", "address": "札幌市西区西野8条7-5-1", "x": 141.262192, "y": 43.066069, "label": "西野中" }, "geometry": { "type": "Point", "coordinates": [ 141.26219231749999, 43.066068930900002 ] } },
{ "type": "Feature", "properties": { "A32_001": 1107, "A32_002": "札幌市立", "A32_003": "西陵中学校", "address": "札幌市西区発寒15条2-5-1", "x": 141.297088, "y": 43.103277, "label": "西陵中" }, "geometry": { "type": "Point", "coordinates": [ 141.2970877066, 43.103277080700003 ] } },
{ "type": "Feature", "properties": { "A32_001": 1107, "A32_002": "札幌市立", "A32_003": "八軒中学校", "address": "札幌市西区八軒8条西8-1-1", "x": 141.306092, "y": 43.095304, "label": "八軒中" }, "geometry": { "type": "Point", "coordinates": [ 141.306092116, 43.095303745199999 ] } },
{ "type": "Feature", "properties": { "A32_001": 1107, "A32_002": "札幌市立", "A32_003": "八軒東中学校", "address": "札幌市西区八軒2条東3-1-20", "x": 141.315551, "y": 43.080040, "label": "八軒東中" }, "geometry": { "type": "Point", "coordinates": [ 141.31555118770001, 43.0800398903 ] } },
{ "type": "Feature", "properties": { "A32_001": 1107, "A32_002": "札幌市立", "A32_003": "発寒中学校", "address": "札幌市西区発寒5条7-1-1", "x": 141.286308, "y": 43.085952, "label": "発寒中" }, "geometry": { "type": "Point", "coordinates": [ 141.2863075802, 43.085952150700003 ] } },
{ "type": "Feature", "properties": { "A32_001": 1107, "A32_002": "札幌市立", "A32_003": "福井野中学校", "address": "札幌市西区福井6-12-10", "x": 141.264903, "y": 43.056443, "label": "福井野中" }, "geometry": { "type": "Point", "coordinates": [ 141.26490287030001, 43.056443080199998 ] } },
{ "type": "Feature", "properties": { "A32_001": 1107, "A32_002": "札幌市立", "A32_003": "陵北中学校", "address": "札幌市西区二十四軒2条3-1-23", "x": 141.314101, "y": 43.072467, "label": "陵北中" }, "geometry": { "type": "Point", "coordinates": [ 141.31410146420001, 43.0724671519 ] } },
{ "type": "Feature", "properties": { "A32_001": 1108, "A32_002": "札幌市立", "A32_003": "もみじ台中学校", "address": "札幌市厚別区もみじ台西1", "x": 141.484534, "y": 43.038172, "label": "もみじ台中" }, "geometry": { "type": "Point", "coordinates": [ 141.484534, 43.038172 ] } },
{ "type": "Feature", "properties": { "A32_001": 1108, "A32_002": "札幌市立", "A32_003": "もみじ台南中学校", "address": "札幌市厚別区もみじ台南7-3-1", "x": 141.504009, "y": 43.022390, "label": "もみじ台南中" }, "geometry": { "type": "Point", "coordinates": [ 141.50400917729999, 43.022389967199999 ] } },
{ "type": "Feature", "properties": { "A32_001": 1108, "A32_002": "札幌市立", "A32_003": "厚別中学校", "address": "札幌市厚別区厚別東3条5-1-1", "x": 141.487508, "y": 43.047156, "label": "厚別中" }, "geometry": { "type": "Point", "coordinates": [ 141.4875076962, 43.047156196800003 ] } },
{ "type": "Feature", "properties": { "A32_001": 1108, "A32_002": "札幌市立", "A32_003": "厚別南中学校", "address": "札幌市厚別区大谷地東7-1-1", "x": 141.460568, "y": 43.028983, "label": "厚別南中" }, "geometry": { "type": "Point", "coordinates": [ 141.4605676793, 43.028982622100003 ] } },
{ "type": "Feature", "properties": { "A32_001": 1108, "A32_002": "札幌市立", "A32_003": "厚別北中学校", "address": "札幌市厚別区厚別町小野幌777-5", "x": 141.470098, "y": 43.059094, "label": "厚別北中" }, "geometry": { "type": "Point", "coordinates": [ 141.4700978944, 43.059094321700002 ] } },
{ "type": "Feature", "properties": { "A32_001": 1108, "A32_002": "札幌市立", "A32_003": "上野幌中学校", "address": "札幌市厚別区上野幌2条3-10-1", "x": 141.472046, "y": 43.015917, "label": "上野幌中" }, "geometry": { "type": "Point", "coordinates": [ 141.47204552220001, 43.015916836700001 ] } },
{ "type": "Feature", "properties": { "A32_001": 1108, "A32_002": "札幌市立", "A32_003": "信濃中学校", "address": "札幌市厚別区厚別中央3条2-3-1", "x": 141.459805, "y": 43.036543, "label": "信濃中" }, "geometry": { "type": "Point", "coordinates": [ 141.45980495399999, 43.036543171600002 ] } },
{ "type": "Feature", "properties": { "A32_001": 1108, "A32_002": "札幌市立", "A32_003": "青葉中学校", "address": "札幌市厚別区青葉町10-1-1", "x": 141.480253, "y": 43.024535, "label": "青葉中" }, "geometry": { "type": "Point", "coordinates": [ 141.48025346419999, 43.024534968399998 ] } },
{ "type": "Feature", "properties": { "A32_001": 1109, "A32_002": "札幌市立", "A32_003": "稲積中学校", "address": "札幌市手稲区前田4条5-2-1", "x": 141.262204, "y": 43.117358, "label": "稲積中" }, "geometry": { "type": "Point", "coordinates": [ 141.262204, 43.117358 ] } },
{ "type": "Feature", "properties": { "A32_001": 1109, "A32_002": "札幌市立", "A32_003": "稲穂中学校", "address": "札幌市手稲区稲穂4条2-18-10", "x": 141.227200, "y": 43.119118, "label": "稲穂中" }, "geometry": { "type": "Point", "coordinates": [ 141.22720037549999, 43.119118011799998 ] } },
{ "type": "Feature", "properties": { "A32_001": 1109, "A32_002": "札幌市立", "A32_003": "稲陵中学校", "address": "札幌市手稲区曙7条2-6-50", "x": 141.236488, "y": 43.139336, "label": "稲陵中" }, "geometry": { "type": "Point", "coordinates": [ 141.23648788400001, 43.139336298499998 ] } },
{ "type": "Feature", "properties": { "A32_001": 1109, "A32_002": "札幌市立", "A32_003": "手稲西中学校", "address": "札幌市手稲区金山3条2-8-7", "x": 141.203920, "y": 43.123659, "label": "手稲西中" }, "geometry": { "type": "Point", "coordinates": [ 141.2039203038, 43.123659218299998 ] } },
{ "type": "Feature", "properties": { "A32_001": 1109, "A32_002": "札幌市立", "A32_003": "手稲中学校", "address": "札幌市手稲区富丘3条5-2-1", "x": 141.247881, "y": 43.107964, "label": "手稲中" }, "geometry": { "type": "Point", "coordinates": [ 141.24788149150001, 43.107964368600001 ] } },
{ "type": "Feature", "properties": { "A32_001": 1109, "A32_002": "札幌市立", "A32_003": "新陵中学校", "address": "札幌市手稲区新発寒5条4-4-1", "x": 141.273962, "y": 43.115260, "label": "新陵中" }, "geometry": { "type": "Point", "coordinates": [ 141.27396169619999, 43.115260025200001 ] } },
{ "type": "Feature", "properties": { "A32_001": 1109, "A32_002": "札幌市立", "A32_003": "星置中学校", "address": "札幌市手稲区星置3条5-13-1", "x": 141.203882, "y": 43.139923, "label": "星置中" }, "geometry": { "type": "Point", "coordinates": [ 141.2038815649, 43.139923051700002 ] } },
{ "type": "Feature", "properties": { "A32_001": 1109, "A32_002": "札幌市立", "A32_003": "前田中学校", "address": "札幌市手稲区前田7条13-1-1", "x": 141.251530, "y": 43.130862, "label": "前田中" }, "geometry": { "type": "Point", "coordinates": [ 141.25152995569999, 43.130861803 ] } },
{ "type": "Feature", "properties": { "A32_001": 1109, "A32_002": "札幌市立", "A32_003": "前田北中学校", "address": "札幌市手稲区前田10条15-8-1", "x": 141.252159, "y": 43.138850, "label": "前田北中" }, "geometry": { "type": "Point", "coordinates": [ 141.2521585632, 43.13885 ] } },
{ "type": "Feature", "properties": { "A32_001": 1110, "A32_002": "札幌市立", "A32_003": "真栄中学校", "address": "札幌市清田区美しが丘1条1-2-10", "x": 141.448800, "y": 42.989004, "label": "真栄中" }, "geometry": { "type": "Point", "coordinates": [ 141.4488, 42.989004 ] } },
{ "type": "Feature", "properties": { "A32_001": 1110, "A32_002": "札幌市立", "A32_003": "清田中学校", "address": "札幌市清田区清田3条3-7-1", "x": 141.434661, "y": 42.997175, "label": "清田中" }, "geometry": { "type": "Point", "coordinates": [ 141.43466131420001, 42.997175226099998 ] } },
{ "type": "Feature", "properties": { "A32_001": 1110, "A32_002": "札幌市立", "A32_003": "平岡中央中学校", "address": "札幌市清田区平岡5条4-7-1", "x": 141.457863, "y": 43.004488, "label": "平岡中央中" }, "geometry": { "type": "Point", "coordinates": [ 141.45786310240001, 43.00448847 ] } },
{ "type": "Feature", "properties": { "A32_001": 1110, "A32_002": "札幌市立", "A32_003": "平岡中学校", "address": "札幌市清田区平岡2条5-4-10", "x": 141.455178, "y": 42.993595, "label": "平岡中" }, "geometry": { "type": "Point", "coordinates": [ 141.45517782589999, 42.993595290800002 ] } },
{ "type": "Feature", "properties": { "A32_001": 1110, "A32_002": "札幌市立", "A32_003": "平岡緑中学校", "address": "札幌市清田区平岡公園東9-11-1", "x": 141.475749, "y": 43.001108, "label": "平岡緑中" }, "geometry": { "type": "Point", "coordinates": [ 141.47574912639999, 43.001108249399998 ] } },
{ "type": "Feature", "properties": { "A32_001": 1110, "A32_002": "札幌市立", "A32_003": "北野台中学校", "address": "札幌市清田区北野4条4-13-1", "x": 141.443507, "y": 43.012748, "label": "北野台中" }, "geometry": { "type": "Point", "coordinates": [ 141.4435065632, 43.0127475878 ] } },
{ "type": "Feature", "properties": { "A32_001": 1110, "A32_002": "札幌市立", "A32_003": "北野中学校", "address": "札幌市清田区北野2条3-7-30", "x": 141.436585, "y": 43.008761, "label": "北野中" }, "geometry": { "type": "Point", "coordinates": [ 141.43658458019999, 43.008760760599998 ] } }
]
}
