{
"type": "FeatureCollection",
"features": [
{ "type": "Feature", "properties": { "種別": "認可保育所", "名称": "もみじ台南保育園", "定員": 60, "住所": "札幌市厚別区もみじ台南6丁目11番1号", "区": "札幌市厚別区", "緯度": 43.024, "経度": 141.500074 }, "geometry": { "type": "Point", "coordinates": [ 141.500074, 43.024 ] } },
{ "type": "Feature", "properties": { "種別": "認可保育所", "名称": "札幌わんぱく館", "定員": 60, "住所": "札幌市厚別区厚別中央5条6丁目6番11号", "区": "札幌市厚別区", "緯度": 43.046137, "経度": 141.472295 }, "geometry": { "type": "Point", "coordinates": [ 141.472295, 43.046137 ] } },
{ "type": "Feature", "properties": { "種別": "認可保育所", "名称": "新さっぽろとまと保育園", "定員": 60, "住所": "札幌市厚別区厚別東2条3丁目1番10号", "区": "札幌市厚別区", "緯度": 43.041852, "経度": 141.483557 }, "geometry": { "type": "Point", "coordinates": [ 141.483557, 43.041852 ] } },
{ "type": "Feature", "properties": { "種別": "認可保育所", "名称": "厚別もえぎ保育園", "定員": 60, "住所": "札幌市厚別区厚別東5条7丁目10番1号", "区": "札幌市厚別区", "緯度": 43.055278, "経度": 141.481456 }, "geometry": { "type": "Point", "coordinates": [ 141.481456, 43.055278 ] } },
{ "type": "Feature", "properties": { "種別": "認可保育所", "名称": "厚別共栄保育園", "定員": 90, "住所": "札幌市厚別区厚別南1丁目11番1号", "区": "札幌市厚別区", "緯度": 43.03098, "経度": 141.465693 }, "geometry": { "type": "Point", "coordinates": [ 141.465693, 43.03098 ] } },
{ "type": "Feature", "properties": { "種別": "認可保育所", "名称": "厚別こま草保育園", "定員": 90, "住所": "札幌市厚別区厚別中央3条4丁目4番8号", "区": "札幌市厚別区", "緯度": 43.039701, "経度": 141.466137 }, "geometry": { "type": "Point", "coordinates": [ 141.466137, 43.039701 ] } },
{ "type": "Feature", "properties": { "種別": "認可保育所", "名称": "厚別西保育園", "定員": 90, "住所": "札幌市厚別区厚別西4条4丁目10番10号", "区": "札幌市厚別区", "緯度": 43.053378, "経度": 141.465483 }, "geometry": { "type": "Point", "coordinates": [ 141.465483, 43.053378 ] } },
{ "type": "Feature", "properties": { "種別": "認可保育所", "名称": "ひばりが丘保育園", "定員": 120, "住所": "札幌市厚別区厚別中央2条4丁目11番1号", "区": "札幌市厚別区", "緯度": 43.03609, "経度": 141.469331 }, "geometry": { "type": "Point", "coordinates": [ 141.469331, 43.03609 ] } },
{ "type": "Feature", "properties": { "種別": "認可保育所", "名称": "札幌協働保育園", "定員": 120, "住所": "札幌市厚別区もみじ台西6丁目1番3号", "区": "札幌市厚別区", "緯度": 43.03148, "経度": 141.490552 }, "geometry": { "type": "Point", "coordinates": [ 141.490552, 43.03148 ] } },
{ "type": "Feature", "properties": { "種別": "認可保育所", "名称": "青葉興正保育園", "定員": 150, "住所": "札幌市厚別区青葉町2丁目7番25号", "区": "札幌市厚別区", "緯度": 43.032869, "経度": 141.474025 }, "geometry": { "type": "Point", "coordinates": [ 141.474025, 43.032869 ] } },
{ "type": "Feature", "properties": { "種別": "認可保育所", "名称": "もみじ台北保育園", "定員": 150, "住所": "札幌市厚別区もみじ台北4丁目3番1号", "区": "札幌市厚別区", "緯度": 43.037174, "経度": 141.488774 }, "geometry": { "type": "Point", "coordinates": [ 141.488774, 43.037174 ] } },
{ "type": "Feature", "properties": { "種別": "幼稚園", "名称": "ひばりが丘明星", "定員": 100, "住所": "札幌市厚別区厚別中央2条4丁目1-10", "区": "札幌市厚別区", "緯度": 43.035146, "経度": 141.465915 }, "geometry": { "type": "Point", "coordinates": [ 141.465915, 43.035146 ] } },
{ "type": "Feature", "properties": { "種別": "幼稚園", "名称": "第２あつべつ", "定員": 100, "住所": "札幌市厚別区厚別西3条4丁目1番5", "区": "札幌市厚別区", "緯度": 43.049672, "経度": 141.464553 }, "geometry": { "type": "Point", "coordinates": [ 141.464553, 43.049672 ] } },
{ "type": "Feature", "properties": { "種別": "幼稚園", "名称": "札幌あすなろ", "定員": 105, "住所": "札幌市厚別区もみじ台東7丁目9-2", "区": "札幌市厚別区", "緯度": 43.026009, "経度": 141.501579 }, "geometry": { "type": "Point", "coordinates": [ 141.501579, 43.026009 ] } },
{ "type": "Feature", "properties": { "種別": "幼稚園", "名称": "北光", "定員": 120, "住所": "札幌市厚別区青葉町7丁目1-32", "区": "札幌市厚別区", "緯度": 43.030258, "経度": 141.477859 }, "geometry": { "type": "Point", "coordinates": [ 141.477859, 43.030258 ] } },
{ "type": "Feature", "properties": { "種別": "幼稚園", "名称": "厚別", "定員": 130, "住所": "札幌市厚別区厚別中央3条3丁目5-6", "区": "札幌市厚別区", "緯度": 43.039867, "経度": 141.462526 }, "geometry": { "type": "Point", "coordinates": [ 141.462526, 43.039867 ] } },
{ "type": "Feature", "properties": { "種別": "幼稚園", "名称": "大谷地", "定員": 160, "住所": "札幌市厚別区大谷地東3丁目5-11", "区": "札幌市厚別区", "緯度": 43.024203, "経度": 141.455528 }, "geometry": { "type": "Point", "coordinates": [ 141.455528, 43.024203 ] } },
{ "type": "Feature", "properties": { "種別": "幼稚園", "名称": "札幌みづほ", "定員": 170, "住所": "札幌市厚別区もみじ台東2丁目5", "区": "札幌市厚別区", "緯度": 43.034175, "経度": 141.49644 }, "geometry": { "type": "Point", "coordinates": [ 141.49644, 43.034175 ] } },
{ "type": "Feature", "properties": { "種別": "幼稚園", "名称": "虹の森カトリック", "定員": 200, "住所": "札幌市厚別区厚別東3条4丁目3-10", "区": "札幌市厚別区", "緯度": 43.047173, "経度": 141.48394 }, "geometry": { "type": "Point", "coordinates": [ 141.48394, 43.047173 ] } },
{ "type": "Feature", "properties": { "種別": "幼稚園", "名称": "札幌あおば", "定員": 200, "住所": "札幌市厚別区厚別北3条5丁目11-6", "区": "札幌市厚別区", "緯度": 43.059949, "経度": 141.480412 }, "geometry": { "type": "Point", "coordinates": [ 141.480412, 43.059949 ] } },
{ "type": "Feature", "properties": { "種別": "幼稚園", "名称": "桜台いちい", "定員": 240, "住所": "札幌市厚別区厚別西611番地520", "区": "札幌市厚別区", "緯度": 43.054838, "経度": 141.453304 }, "geometry": { "type": "Point", "coordinates": [ 141.453304, 43.054838 ] } },
{ "type": "Feature", "properties": { "種別": "幼稚園", "名称": "もみじ台", "定員": 320, "住所": "札幌市厚別区もみじ台北5丁目6", "区": "札幌市厚別区", "緯度": 43.036647, "経度": 141.493051 }, "geometry": { "type": "Point", "coordinates": [ 141.493051, 43.036647 ] } },
{ "type": "Feature", "properties": { "種別": "幼稚園", "名称": "新さっぽろ", "定員": 320, "住所": "札幌市厚別区上野幌2条3丁目6-1", "区": "札幌市厚別区", "緯度": 43.018315, "経度": 141.472804 }, "geometry": { "type": "Point", "coordinates": [ 141.472804, 43.018315 ] } },
{ "type": "Feature", "properties": { "種別": "認定こども園", "名称": "認定こども園いちい幼稚園", "定員": 210, "住所": "札幌市厚別区もみじ台西5丁目3", "区": "札幌市厚別区", "緯度": 43.031508, "経度": 141.487885 }, "geometry": { "type": "Point", "coordinates": [ 141.487885, 43.031508 ] } },
{ "type": "Feature", "properties": { "種別": "幼稚園", "名称": "らいらっく幼稚園", "定員": null, "住所": "札幌市厚別区大谷地東5丁目8-2", "区": "札幌市厚別区", "緯度": 43.024526, "経度": 141.459146 }, "geometry": { "type": "Point", "coordinates": [ 141.459146, 43.024526 ] } },
{ "type": "Feature", "properties": { "種別": "幼稚園", "名称": "あつべつきた幼稚園", "定員": 90, "住所": "札幌市厚別区厚別北3条3丁目15-3", "区": "札幌市厚別区", "緯度": 43.056487, "経度": 141.475089 }, "geometry": { "type": "Point", "coordinates": [ 141.475089, 43.056487 ] } },
{ "type": "Feature", "properties": { "種別": "認可外保育所", "名称": "保育所ちびっこランド厚別中央園", "定員": null, "住所": "札幌市厚別区厚別中央3条2丁目12-35", "区": "札幌市厚別区", "緯度": 43.035945, "経度": 141.461828 }, "geometry": { "type": "Point", "coordinates": [ 141.461828, 43.035945 ] } },
{ "type": "Feature", "properties": { "種別": "認可外保育所", "名称": "キッズルーム厚別店", "定員": null, "住所": "札幌市厚別区大谷地東1丁目2-30", "区": "札幌市厚別区", "緯度": 43.029498, "経度": 141.449726 }, "geometry": { "type": "Point", "coordinates": [ 141.449726, 43.029498 ] } },
{ "type": "Feature", "properties": { "種別": "認可外保育所", "名称": "りとるKid'sクラブ新さっぽろルーム", "定員": null, "住所": "札幌市厚別区厚別中央1条7丁目17-37", "区": "札幌市厚別区", "緯度": 43.037905, "経度": 141.480024 }, "geometry": { "type": "Point", "coordinates": [ 141.480024, 43.037905 ] } },
{ "type": "Feature", "properties": { "種別": "認可外保育所", "名称": "アートチャイルドケアももちゃんナーサリー新さっぽろ園", "定員": null, "住所": "札幌市厚別区厚別中央2条4丁目コナミスポーツ新札幌", "区": "札幌市厚別区", "緯度": 43.038046, "経度": 141.468544 }, "geometry": { "type": "Point", "coordinates": [ 141.468544, 43.038046 ] } },
{ "type": "Feature", "properties": { "種別": "認可外保育所", "名称": "はなまるキッズ大谷地店", "定員": null, "住所": "札幌市厚別区大谷地東2丁目1-3", "区": "札幌市厚別区", "緯度": 43.027694, "経度": 141.449211 }, "geometry": { "type": "Point", "coordinates": [ 141.449211, 43.027694 ] } },
{ "type": "Feature", "properties": { "種別": "認可保育所", "名称": "ていねあすなろ保育園", "定員": 60, "住所": "札幌市手稲区曙5条3丁目2番25号", "区": "札幌市手稲区", "緯度": 43.132575, "経度": 141.233615 }, "geometry": { "type": "Point", "coordinates": [ 141.233615, 43.132575 ] } },
{ "type": "Feature", "properties": { "種別": "認可保育所", "名称": "稲穂中央保育園", "定員": 60, "住所": "札幌市手稲区稲穂4条7丁目1番15号", "区": "札幌市手稲区", "緯度": 43.126396, "経度": 141.212924 }, "geometry": { "type": "Point", "coordinates": [ 141.212924, 43.126396 ] } },
{ "type": "Feature", "properties": { "種別": "認可保育所", "名称": "まつば保育園", "定員": 60, "住所": "札幌市手稲区新発寒5条9丁目3番24号", "区": "札幌市手稲区", "緯度": 43.121385, "経度": 141.267325 }, "geometry": { "type": "Point", "coordinates": [ 141.267325, 43.121385 ] } },
{ "type": "Feature", "properties": { "種別": "認可保育所", "名称": "つくし保育園", "定員": 60, "住所": "札幌市手稲区富丘2条4丁目7番6号", "区": "札幌市手稲区", "緯度": 43.108558, "経度": 141.252081 }, "geometry": { "type": "Point", "coordinates": [ 141.252081, 43.108558 ] } },
{ "type": "Feature", "properties": { "種別": "認可保育所", "名称": "札幌北陽保育園", "定員": 90, "住所": "札幌市手稲区手稲山口511", "区": "札幌市手稲区", "緯度": 43.140201, "経度": 141.213906 }, "geometry": { "type": "Point", "coordinates": [ 141.213906, 43.140201 ] } },
{ "type": "Feature", "properties": { "種別": "認可保育所", "名称": "宮の沢さくら保育園", "定員": 90, "住所": "札幌市手稲区西宮の沢4条1丁目1番25号", "区": "札幌市手稲区", "緯度": 43.095816, "経度": 141.261468 }, "geometry": { "type": "Point", "coordinates": [ 141.261468, 43.095816 ] } },
{ "type": "Feature", "properties": { "種別": "認可保育所", "名称": "前田保育園", "定員": 90, "住所": "札幌市手稲区前田5条7丁目2番15号", "区": "札幌市手稲区", "緯度": 43.121519, "経度": 141.2594 }, "geometry": { "type": "Point", "coordinates": [ 141.2594, 43.121519 ] } },
{ "type": "Feature", "properties": { "種別": "認可保育所", "名称": "前田中央保育園", "定員": 90, "住所": "札幌市手稲区前田8条12丁目5番1号", "区": "札幌市手稲区", "緯度": 43.13252, "経度": 141.254946 }, "geometry": { "type": "Point", "coordinates": [ 141.254946, 43.13252 ] } },
{ "type": "Feature", "properties": { "種別": "認可保育所", "名称": "新発寒たんぽぽ保育園", "定員": 90, "住所": "札幌市手稲区新発寒6条4丁目15番10号", "区": "札幌市手稲区", "緯度": 43.118797, "経度": 141.27776 }, "geometry": { "type": "Point", "coordinates": [ 141.27776, 43.118797 ] } },
{ "type": "Feature", "properties": { "種別": "認可保育所", "名称": "星置ピノキオ保育園", "定員": 90, "住所": "札幌市手稲区星置1条1丁目20番1号", "区": "札幌市手稲区", "緯度": 43.134349, "経度": 141.213763 }, "geometry": { "type": "Point", "coordinates": [ 141.213763, 43.134349 ] } },
{ "type": "Feature", "properties": { "種別": "認可保育所", "名称": "さより第2保育園", "定員": 90, "住所": "札幌市手稲区富丘1条5丁目9番1号", "区": "札幌市手稲区", "緯度": 43.111472, "経度": 141.253311 }, "geometry": { "type": "Point", "coordinates": [ 141.253311, 43.111472 ] } },
{ "type": "Feature", "properties": { "種別": "認可保育所", "名称": "あかつき山口保育園", "定員": 120, "住所": "札幌市手稲区曙11条1丁目3番30号", "区": "札幌市手稲区", "緯度": 43.14807, "経度": 141.238956 }, "geometry": { "type": "Point", "coordinates": [ 141.238956, 43.14807 ] } },
{ "type": "Feature", "properties": { "種別": "認可保育所", "名称": "手稲曙保育園", "定員": 150, "住所": "札幌市手稲区曙2条1丁目2番31号", "区": "札幌市手稲区", "緯度": 43.126656, "経度": 141.238568 }, "geometry": { "type": "Point", "coordinates": [ 141.238568, 43.126656 ] } },
{ "type": "Feature", "properties": { "種別": "認可外保育所", "名称": "札幌ハイジ保育園手稲前田保育ルーム", "定員": null, "住所": "札幌市手稲区前田6条7丁目1-16", "区": "札幌市手稲区", "緯度": 43.122475, "経度": 141.260061 }, "geometry": { "type": "Point", "coordinates": [ 141.260061, 43.122475 ] } },
{ "type": "Feature", "properties": { "種別": "幼稚園", "名称": "手稲育英", "定員": 120, "住所": "札幌市手稲区稲穂2条5丁目10-1", "区": "札幌市手稲区", "緯度": 43.126822, "経度": 141.220652 }, "geometry": { "type": "Point", "coordinates": [ 141.220652, 43.126822 ] } },
{ "type": "Feature", "properties": { "種別": "幼稚園", "名称": "松葉", "定員": 170, "住所": "札幌市手稲区新発寒5条9丁目3-24", "区": "札幌市手稲区", "緯度": 43.121407, "経度": 141.267372 }, "geometry": { "type": "Point", "coordinates": [ 141.267372, 43.121407 ] } },
{ "type": "Feature", "properties": { "種別": "幼稚園", "名称": "星の子", "定員": 200, "住所": "札幌市手稲区星置3条8丁目1-10", "区": "札幌市手稲区", "緯度": 43.13807, "経度": 141.196348 }, "geometry": { "type": "Point", "coordinates": [ 141.196348, 43.13807 ] } },
{ "type": "Feature", "properties": { "種別": "幼稚園", "名称": "おおぞら", "定員": 360, "住所": "札幌市手稲区前田8条10丁目6-35", "区": "札幌市手稲区", "緯度": 43.129545, "経度": 141.260761 }, "geometry": { "type": "Point", "coordinates": [ 141.260761, 43.129545 ] } },
{ "type": "Feature", "properties": { "種別": "幼稚園", "名称": "山王", "定員": 400, "住所": "札幌市手稲区曙9条1丁目9番15号", "区": "札幌市手稲区", "緯度": 43.144154, "経度": 141.240067 }, "geometry": { "type": "Point", "coordinates": [ 141.240067, 43.144154 ] } },
{ "type": "Feature", "properties": { "種別": "幼稚園", "名称": "富丘つくし", "定員": 400, "住所": "札幌市手稲区富丘2条4丁目7番6号", "区": "札幌市手稲区", "緯度": 43.108558, "経度": 141.252081 }, "geometry": { "type": "Point", "coordinates": [ 141.252081, 43.108558 ] } },
{ "type": "Feature", "properties": { "種別": "幼稚園", "名称": "前田", "定員": 410, "住所": "札幌市手稲区手稲前田555-3", "区": "札幌市手稲区", "緯度": 43.134379, "経度": 141.273815 }, "geometry": { "type": "Point", "coordinates": [ 141.273815, 43.134379 ] } },
{ "type": "Feature", "properties": { "種別": "幼稚園", "名称": "さわらび", "定員": 480, "住所": "札幌市手稲区曙5条2丁目7番10号", "区": "札幌市手稲区", "緯度": 43.133354, "経度": 141.238267 }, "geometry": { "type": "Point", "coordinates": [ 141.238267, 43.133354 ] } },
{ "type": "Feature", "properties": { "種別": "認可保育所", "名称": "手稲区保育・子育て支援センター", "定員": 120, "住所": "札幌市手稲区手稲本町3条2丁目4番15号", "区": "札幌市手稲区", "緯度": 43.115578, "経度": 141.240048 }, "geometry": { "type": "Point", "coordinates": [ 141.240048, 43.115578 ] } },
{ "type": "Feature", "properties": { "種別": "幼稚園", "名称": "いなづみ幼稚園", "定員": 70, "住所": "札幌市手稲区前田4条5丁目1-11", "区": "札幌市手稲区", "緯度": 43.117604, "経度": 141.263366 }, "geometry": { "type": "Point", "coordinates": [ 141.263366, 43.117604 ] } },
{ "type": "Feature", "properties": { "種別": "幼稚園", "名称": "手稲中央幼稚園", "定員": 90, "住所": "札幌市手稲区手稲本町2条5丁目13-1", "区": "札幌市手稲区", "緯度": 43.120345, "経度": 141.238968 }, "geometry": { "type": "Point", "coordinates": [ 141.238968, 43.120345 ] } },
{ "type": "Feature", "properties": { "種別": "認可外保育所", "名称": "コアラ保育園", "定員": null, "住所": "札幌市手稲区星置1条3丁目4-12", "区": "札幌市手稲区", "緯度": 43.133672, "経度": 141.211116 }, "geometry": { "type": "Point", "coordinates": [ 141.211116, 43.133672 ] } },
{ "type": "Feature", "properties": { "種別": "認可外保育所", "名称": "りったん保育園", "定員": null, "住所": "札幌市手稲区前田6条15丁目5-17", "区": "札幌市手稲区", "緯度": 43.133296, "経度": 141.244826 }, "geometry": { "type": "Point", "coordinates": [ 141.244826, 43.133296 ] } },
{ "type": "Feature", "properties": { "種別": "認可外保育所", "名称": "保育所ちびっこランド手稲駅前園", "定員": null, "住所": "札幌市手稲区手稲本町2条2丁目4-20", "区": "札幌市手稲区", "緯度": 43.117792, "経度": 141.243496 }, "geometry": { "type": "Point", "coordinates": [ 141.243496, 43.117792 ] } },
{ "type": "Feature", "properties": { "種別": "認可外保育所", "名称": "手稲ひばり保育ルーム", "定員": null, "住所": "札幌市手稲区手稲本町2条4丁目4-35", "区": "札幌市手稲区", "緯度": 43.119468, "経度": 141.240749 }, "geometry": { "type": "Point", "coordinates": [ 141.240749, 43.119468 ] } },
{ "type": "Feature", "properties": { "種別": "認可外保育所", "名称": "手稲ほっこランド", "定員": null, "住所": "札幌市手稲区手稲本町1条3丁目6-15", "区": "札幌市手稲区", "緯度": 43.118888, "経度": 141.245255 }, "geometry": { "type": "Point", "coordinates": [ 141.245255, 43.118888 ] } },
{ "type": "Feature", "properties": { "種別": "認可外保育所", "名称": "ピッコロ子ども倶楽部稲積園", "定員": null, "住所": "札幌市手稲区前田4条5丁目1-6", "区": "札幌市手稲区", "緯度": 43.117087, "経度": 141.262658 }, "geometry": { "type": "Point", "coordinates": [ 141.262658, 43.117087 ] } },
{ "type": "Feature", "properties": { "種別": "認可保育所", "名称": "さわやか保育園", "定員": 60, "住所": "札幌市清田区平岡6条2丁目3番5号", "区": "札幌市清田区", "緯度": 43.010065, "経度": 141.45414 }, "geometry": { "type": "Point", "coordinates": [ 141.45414, 43.010065 ] } },
{ "type": "Feature", "properties": { "種別": "認可保育所", "名称": "札幌真栄東保育園", "定員": 60, "住所": "札幌市清田区真栄5条5丁目7番43号", "区": "札幌市清田区", "緯度": 42.978828, "経度": 141.449068 }, "geometry": { "type": "Point", "coordinates": [ 141.449068, 42.978828 ] } },
{ "type": "Feature", "properties": { "種別": "認可保育所", "名称": "札幌杉の子保育園", "定員": 90, "住所": "札幌市清田区北野4条3丁目1番8号", "区": "札幌市清田区", "緯度": 43.014446, "経度": 141.435564 }, "geometry": { "type": "Point", "coordinates": [ 141.435564, 43.014446 ] } },
{ "type": "Feature", "properties": { "種別": "認可保育所", "名称": "札幌南清田保育園", "定員": 90, "住所": "札幌市清田区清田5条2丁目29番1号", "区": "札幌市清田区", "緯度": 42.996205, "経度": 141.429309 }, "geometry": { "type": "Point", "coordinates": [ 141.429309, 42.996205 ] } },
{ "type": "Feature", "properties": { "種別": "認可保育所", "名称": "札幌あさひ保育園", "定員": 90, "住所": "札幌市清田区美しが丘3条2丁目6番27号", "区": "札幌市清田区", "緯度": 42.986762, "経度": 141.449336 }, "geometry": { "type": "Point", "coordinates": [ 141.449336, 42.986762 ] } },
{ "type": "Feature", "properties": { "種別": "認可保育所", "名称": "花山保育園", "定員": 90, "住所": "札幌市清田区里塚緑ヶ丘3丁目8番地1号", "区": "札幌市清田区", "緯度": 42.999289, "経度": 141.472416 }, "geometry": { "type": "Point", "coordinates": [ 141.472416, 42.999289 ] } },
{ "type": "Feature", "properties": { "種別": "認可保育所", "名称": "アルプス保育園", "定員": 90, "住所": "札幌市清田区平岡4条3丁目4番43号", "区": "札幌市清田区", "緯度": 43.003529, "経度": 141.453363 }, "geometry": { "type": "Point", "coordinates": [ 141.453363, 43.003529 ] } },
{ "type": "Feature", "properties": { "種別": "認可保育所", "名称": "札幌北野保育園", "定員": 120, "住所": "札幌市清田区北野7条4丁目11番30号", "区": "札幌市清田区", "緯度": 43.019925, "経度": 141.447695 }, "geometry": { "type": "Point", "coordinates": [ 141.447695, 43.019925 ] } },
{ "type": "Feature", "properties": { "種別": "認可保育所", "名称": "清田保育園", "定員": 150, "住所": "札幌市清田区平岡1条2丁目11番30号", "区": "札幌市清田区", "緯度": 42.997627, "経度": 141.446058 }, "geometry": { "type": "Point", "coordinates": [ 141.446058, 42.997627 ] } },
{ "type": "Feature", "properties": { "種別": "幼稚園", "名称": "光の泉", "定員": 150, "住所": "札幌市清田区清田6条3丁目4-25", "区": "札幌市清田区", "緯度": 42.993455, "経度": 141.432531 }, "geometry": { "type": "Point", "coordinates": [ 141.432531, 42.993455 ] } },
{ "type": "Feature", "properties": { "種別": "幼稚園", "名称": "つみき", "定員": 160, "住所": "札幌市清田区里塚1条1丁目14-8", "区": "札幌市清田区", "緯度": 42.989151, "経度": 141.454613 }, "geometry": { "type": "Point", "coordinates": [ 141.454613, 42.989151 ] } },
{ "type": "Feature", "properties": { "種別": "幼稚園", "名称": "美しが丘", "定員": 180, "住所": "札幌市清田区美しが丘5条5丁目8-20", "区": "札幌市清田区", "緯度": 42.977818, "経度": 141.450003 }, "geometry": { "type": "Point", "coordinates": [ 141.450003, 42.977818 ] } },
{ "type": "Feature", "properties": { "種別": "幼稚園", "名称": "札幌国際大学付属", "定員": 210, "住所": "札幌市清田区美しが丘3条1丁目2-1", "区": "札幌市清田区", "緯度": 42.988178, "経度": 141.446864 }, "geometry": { "type": "Point", "coordinates": [ 141.446864, 42.988178 ] } },
{ "type": "Feature", "properties": { "種別": "幼稚園", "名称": "札幌きたの", "定員": 220, "住所": "札幌市清田区北野6条5丁目3-12", "区": "札幌市清田区", "緯度": 43.017092, "経度": 141.449917 }, "geometry": { "type": "Point", "coordinates": [ 141.449917, 43.017092 ] } },
{ "type": "Feature", "properties": { "種別": "幼稚園", "名称": "平ケ岡", "定員": 240, "住所": "札幌市清田区平岡6条1丁目5番30号", "区": "札幌市清田区", "緯度": 43.010982, "経度": 141.45139 }, "geometry": { "type": "Point", "coordinates": [ 141.45139, 43.010982 ] } },
{ "type": "Feature", "properties": { "種別": "幼稚園", "名称": "里塚", "定員": 315, "住所": "札幌市清田区里塚2条6丁目1番8号", "区": "札幌市清田区", "緯度": 42.981485, "経度": 141.465834 }, "geometry": { "type": "Point", "coordinates": [ 141.465834, 42.981485 ] } },
{ "type": "Feature", "properties": { "種別": "幼稚園", "名称": "清田", "定員": 340, "住所": "札幌市清田区清田1条2丁目3-43", "区": "札幌市清田区", "緯度": 43.003926, "経度": 141.440558 }, "geometry": { "type": "Point", "coordinates": [ 141.440558, 43.003926 ] } },
{ "type": "Feature", "properties": { "種別": "幼稚園", "名称": "北野しらかば", "定員": 360, "住所": "札幌市清田区北野5条2丁目2番20", "区": "札幌市清田区", "緯度": 43.020535, "経度": 141.433474 }, "geometry": { "type": "Point", "coordinates": [ 141.433474, 43.020535 ] } },
{ "type": "Feature", "properties": { "種別": "認定こども園", "名称": "札幌市立認定こども園にじいろ", "定員": 115, "住所": "札幌市清田区真栄2条1丁目11-20", "区": "札幌市清田区", "緯度": 42.993801, "経度": 141.440456 }, "geometry": { "type": "Point", "coordinates": [ 141.440456, 42.993801 ] } },
{ "type": "Feature", "properties": { "種別": "認可外保育所", "名称": "チャイルドスペースクッキークラブ", "定員": null, "住所": "札幌市清田区平岡1条2丁目2-6", "区": "札幌市清田区", "緯度": 42.997193, "経度": 141.444941 }, "geometry": { "type": "Point", "coordinates": [ 141.444941, 42.997193 ] } },
{ "type": "Feature", "properties": { "種別": "認可外保育所", "名称": "キッズランド真栄園", "定員": null, "住所": "札幌市清田区真栄1条2丁目1-28", "区": "札幌市清田区", "緯度": 42.996267, "経度": 141.441979 }, "geometry": { "type": "Point", "coordinates": [ 141.441979, 42.996267 ] } },
{ "type": "Feature", "properties": { "種別": "認可外保育所", "名称": "保育所ちびっこランド清田園", "定員": null, "住所": "札幌市清田区清田5条3丁目8-16", "区": "札幌市清田区", "緯度": 42.995043, "経度": 141.433203 }, "geometry": { "type": "Point", "coordinates": [ 141.433203, 42.995043 ] } },
{ "type": "Feature", "properties": { "種別": "認可外保育所", "名称": "はなまるキッズ美しが丘店", "定員": null, "住所": "札幌市清田区美しが丘1条7丁目6", "区": "札幌市清田区", "緯度": 42.981199, "経度": 141.463566 }, "geometry": { "type": "Point", "coordinates": [ 141.463566, 42.981199 ] } },
{ "type": "Feature", "properties": { "種別": "認可外保育所", "名称": "キッズルーム美しが丘店", "定員": null, "住所": "札幌市清田区美しが丘1条5丁目2-25", "区": "札幌市清田区", "緯度": 42.983679, "経度": 141.457944 }, "geometry": { "type": "Point", "coordinates": [ 141.457944, 42.983679 ] } },
{ "type": "Feature", "properties": { "種別": "認可外保育所", "名称": "ピッコロ子ども倶楽部平岡園", "定員": null, "住所": "札幌市清田区平岡2条5丁目2-32", "区": "札幌市清田区", "緯度": 42.995859, "経度": 141.453674 }, "geometry": { "type": "Point", "coordinates": [ 141.453674, 42.995859 ] } },
{ "type": "Feature", "properties": { "種別": "認可保育所", "名称": "発寒保育園", "定員": 60, "住所": "札幌市西区発寒3条1丁目8番1号", "区": "札幌市西区", "緯度": 43.084329, "経度": 141.299676 }, "geometry": { "type": "Point", "coordinates": [ 141.299676, 43.084329 ] } },
{ "type": "Feature", "properties": { "種別": "認可保育所", "名称": "二十¥四軒保育園", "定員": 80, "住所": "札幌市西区二十¥四軒3条7丁目5番28-213号", "区": "札幌市西区", "緯度": 43.070359, "経度": 141.305328 }, "geometry": { "type": "Point", "coordinates": [ 141.305328, 43.070359 ] } },
{ "type": "Feature", "properties": { "種別": "認可保育所", "名称": "発寒おおぞら保育園", "定員": 90, "住所": "札幌市西区発寒14条2丁目10番57号", "区": "札幌市西区", "緯度": 43.101398, "経度": 141.297966 }, "geometry": { "type": "Point", "coordinates": [ 141.297966, 43.101398 ] } },
{ "type": "Feature", "properties": { "種別": "認可保育所", "名称": "札幌市二十¥四軒南保育園", "定員": 90, "住所": "札幌市西区二十¥四軒1条4丁目2番6号", "区": "札幌市西区", "緯度": 43.071109, "経度": 141.314704 }, "geometry": { "type": "Point", "coordinates": [ 141.314704, 43.071109 ] } },
{ "type": "Feature", "properties": { "種別": "認可保育所", "名称": "琴似あやめ保育園", "定員": 90, "住所": "札幌市西区琴似2条2丁目6番25号", "区": "札幌市西区", "緯度": 43.079747, "経度": 141.305815 }, "geometry": { "type": "Point", "coordinates": [ 141.305815, 43.079747 ] } },
{ "type": "Feature", "properties": { "種別": "認可保育所", "名称": "西発寒保育園", "定員": 90, "住所": "札幌市西区発寒9条11丁目1番20号", "区": "札幌市西区", "緯度": 43.094661, "経度": 141.282205 }, "geometry": { "type": "Point", "coordinates": [ 141.282205, 43.094661 ] } },
{ "type": "Feature", "properties": { "種別": "認可保育所", "名称": "八軒星の子保育園", "定員": 90, "住所": "札幌市西区八軒4条西5丁目1番1号", "区": "札幌市西区", "緯度": 43.089607, "経度": 141.306703 }, "geometry": { "type": "Point", "coordinates": [ 141.306703, 43.089607 ] } },
{ "type": "Feature", "properties": { "種別": "認可保育所", "名称": "西野あおい保育園", "定員": 90, "住所": "札幌市西区西野7条8丁目14番5号", "区": "札幌市西区", "緯度": 43.071981, "経度": 141.264267 }, "geometry": { "type": "Point", "coordinates": [ 141.264267, 43.071981 ] } },
{ "type": "Feature", "properties": { "種別": "認可保育所", "名称": "宮の沢桃の花保育園", "定員": 90, "住所": "札幌市西区宮の沢3条3丁目9番3号", "区": "札幌市西区", "緯度": 43.085527, "経度": 141.263819 }, "geometry": { "type": "Point", "coordinates": [ 141.263819, 43.085527 ] } },
{ "type": "Feature", "properties": { "種別": "認可保育所", "名称": "発寒わんぱく保育園", "定員": 120, "住所": "札幌市西区発寒6条14丁目18番23号", "区": "札幌市西区", "緯度": 43.097575, "経度": 141.268923 }, "geometry": { "type": "Point", "coordinates": [ 141.268923, 43.097575 ] } },
{ "type": "Feature", "properties": { "種別": "認可保育所", "名称": "発寒ひかり保育園", "定員": 120, "住所": "札幌市西区発寒5条6丁目3番1号", "区": "札幌市西区", "緯度": 43.086607, "経度": 141.287038 }, "geometry": { "type": "Point", "coordinates": [ 141.287038, 43.086607 ] } },
{ "type": "Feature", "properties": { "種別": "認可保育所", "名称": "発寒たんぽぽ保育園", "定員": 120, "住所": "札幌市西区発寒11条5丁目11番1号", "区": "札幌市西区", "緯度": 43.096217, "経度": 141.290204 }, "geometry": { "type": "Point", "coordinates": [ 141.290204, 43.096217 ] } },
{ "type": "Feature", "properties": { "種別": "認可保育所", "名称": "八軒太陽の子保育園", "定員": 120, "住所": "札幌市西区八軒3条東4丁目4番16号", "区": "札幌市西区", "緯度": 43.08058, "経度": 141.317536 }, "geometry": { "type": "Point", "coordinates": [ 141.317536, 43.08058 ] } },
{ "type": "Feature", "properties": { "種別": "認可保育所", "名称": "西野中央保育園", "定員": 120, "住所": "札幌市西区西野4条3丁目8番12号", "区": "札幌市西区", "緯度": 43.07161, "経度": 141.277896 }, "geometry": { "type": "Point", "coordinates": [ 141.277896, 43.07161 ] } },
{ "type": "Feature", "properties": { "種別": "認可保育所", "名称": "吉田学園さくら保育園", "定員": 120, "住所": "札幌市西区八軒7条西2丁目2番15号", "区": "札幌市西区", "緯度": 43.090393, "経度": 141.313236 }, "geometry": { "type": "Point", "coordinates": [ 141.313236, 43.090393 ] } },
{ "type": "Feature", "properties": { "種別": "認可保育所", "名称": "手稲東保育園", "定員": 150, "住所": "札幌市西区西町南13丁目3番1号", "区": "札幌市西区", "緯度": 43.080996, "経度": 141.280789 }, "geometry": { "type": "Point", "coordinates": [ 141.280789, 43.080996 ] } },
{ "type": "Feature", "properties": { "種別": "認可保育所", "名称": "西野保育園", "定員": 150, "住所": "札幌市西区西野7条2丁目1番45号", "区": "札幌市西区", "緯度": 43.065748, "経度": 141.275013 }, "geometry": { "type": "Point", "coordinates": [ 141.275013, 43.065748 ] } },
{ "type": "Feature", "properties": { "種別": "認可外保育所", "名称": "札幌ハイジ保育園西野保育ルーム", "定員": null, "住所": "札幌市西区西野3条6丁目6-1", "区": "札幌市西区", "緯度": 43.078653, "経度": 141.27594 }, "geometry": { "type": "Point", "coordinates": [ 141.27594, 43.078653 ] } },
{ "type": "Feature", "properties": { "種別": "幼稚園", "名称": "琴似教会", "定員": 105, "住所": "札幌市西区八軒2条西1丁目3-1", "区": "札幌市西区", "緯度": 43.083302, "経度": 141.310731 }, "geometry": { "type": "Point", "coordinates": [ 141.310731, 43.083302 ] } },
{ "type": "Feature", "properties": { "種別": "幼稚園", "名称": "浄恩（休）", "定員": 120, "住所": "札幌市西区琴似3条6丁目1番26号", "区": "札幌市西区", "緯度": 43.076108, "経度": 141.299621 }, "geometry": { "type": "Point", "coordinates": [ 141.299621, 43.076108 ] } },
{ "type": "Feature", "properties": { "種別": "幼稚園", "名称": "宮ノ丘", "定員": 120, "住所": "札幌市西区宮の沢490番地11", "区": "札幌市西区", "緯度": 43.086439, "経度": 141.257374 }, "geometry": { "type": "Point", "coordinates": [ 141.257374, 43.086439 ] } },
{ "type": "Feature", "properties": { "種別": "幼稚園", "名称": "幸明", "定員": 125, "住所": "札幌市西区八軒6条西7丁目2-30", "区": "札幌市西区", "緯度": 43.093384, "経度": 141.305425 }, "geometry": { "type": "Point", "coordinates": [ 141.305425, 43.093384 ] } },
{ "type": "Feature", "properties": { "種別": "幼稚園", "名称": "琴似中央", "定員": 140, "住所": "札幌市西区八軒9条西2丁目4-1", "区": "札幌市西区", "緯度": 43.091551, "経度": 141.315591 }, "geometry": { "type": "Point", "coordinates": [ 141.315591, 43.091551 ] } },
{ "type": "Feature", "properties": { "種別": "幼稚園", "名称": "ｲﾝﾀ-ﾅｼｮﾅﾙ山の手", "定員": 160, "住所": "札幌市西区山の手2条3丁目1番15号", "区": "札幌市西区", "緯度": 43.06947, "経度": 141.301455 }, "geometry": { "type": "Point", "coordinates": [ 141.301455, 43.06947 ] } },
{ "type": "Feature", "properties": { "種別": "幼稚園", "名称": "札幌ルンビニー", "定員": 160, "住所": "札幌市西区二十¥四軒4条2丁目6番17号", "区": "札幌市西区", "緯度": 43.077025, "経度": 141.309815 }, "geometry": { "type": "Point", "coordinates": [ 141.309815, 43.077025 ] } },
{ "type": "Feature", "properties": { "種別": "幼稚園", "名称": "西野第２桜", "定員": 210, "住所": "札幌市西区西町北18丁目4番15号", "区": "札幌市西区", "緯度": 43.087606, "経度": 141.279344 }, "geometry": { "type": "Point", "coordinates": [ 141.279344, 43.087606 ] } },
{ "type": "Feature", "properties": { "種別": "幼稚園", "名称": "西野桜", "定員": 240, "住所": "札幌市西区西野4条6丁目11-15", "区": "札幌市西区", "緯度": 43.075024, "経度": 141.272457 }, "geometry": { "type": "Point", "coordinates": [ 141.272457, 43.075024 ] } },
{ "type": "Feature", "properties": { "種別": "幼稚園", "名称": "西野札幌", "定員": 240, "住所": "札幌市西区西野3条2丁目3番1号", "区": "札幌市西区", "緯度": 43.072828, "経度": 141.282394 }, "geometry": { "type": "Point", "coordinates": [ 141.282394, 43.072828 ] } },
{ "type": "Feature", "properties": { "種別": "幼稚園", "名称": "発寒", "定員": 245, "住所": "札幌市西区発寒5条3丁目8番12号", "区": "札幌市西区", "緯度": 43.08844, "経度": 141.294121 }, "geometry": { "type": "Point", "coordinates": [ 141.294121, 43.08844 ] } },
{ "type": "Feature", "properties": { "種別": "幼稚園", "名称": "あづま", "定員": 320, "住所": "札幌市西区発寒12条3丁目11番1号", "区": "札幌市西区", "緯度": 43.095522, "経度": 141.295648 }, "geometry": { "type": "Point", "coordinates": [ 141.295648, 43.095522 ] } },
{ "type": "Feature", "properties": { "種別": "幼稚園", "名称": "平和", "定員": 370, "住所": "札幌市西区平和3条8丁目1番1号", "区": "札幌市西区", "緯度": 43.054887, "経度": 141.251127 }, "geometry": { "type": "Point", "coordinates": [ 141.251127, 43.054887 ] } },
{ "type": "Feature", "properties": { "種別": "認可保育所", "名称": "札幌市山の手乳児保育園", "定員": 30, "住所": "札幌市西区山の手4条8丁目1番13号", "区": "札幌市西区", "緯度": 43.067414, "経度": 141.291373 }, "geometry": { "type": "Point", "coordinates": [ 141.291373, 43.067414 ] } },
{ "type": "Feature", "properties": { "種別": "認可保育所", "名称": "西区保育・子育て支援センター", "定員": 120, "住所": "札幌市西区二十¥四軒3条5丁目6番1-101号", "区": "札幌市西区", "緯度": 43.071873, "経度": 141.309075 }, "geometry": { "type": "Point", "coordinates": [ 141.309075, 43.071873 ] } },
{ "type": "Feature", "properties": { "種別": "認可保育所", "名称": "札幌市山の手保育園", "定員": 120, "住所": "札幌市西区山の手4条8丁目1番6号", "区": "札幌市西区", "緯度": 43.067387, "経度": 141.291761 }, "geometry": { "type": "Point", "coordinates": [ 141.291761, 43.067387 ] } },
{ "type": "Feature", "properties": { "種別": "幼稚園", "名称": "ふくいの幼稚園", "定員": 70, "住所": "札幌市西区福井3丁目1-9", "区": "札幌市西区", "緯度": 43.057726, "経度": 141.271412 }, "geometry": { "type": "Point", "coordinates": [ 141.271412, 43.057726 ] } },
{ "type": "Feature", "properties": { "種別": "幼稚園", "名称": "はまなす幼稚園", "定員": 90, "住所": "札幌市西区発寒6条12丁目4-10", "区": "札幌市西区", "緯度": 43.093133, "経度": 141.273301 }, "geometry": { "type": "Point", "coordinates": [ 141.273301, 43.093133 ] } },
{ "type": "Feature", "properties": { "種別": "認可保育所", "名称": "こぐま保育園", "定員": 60, "住所": "札幌市西区二十¥四軒4条6丁目3番25号", "区": "札幌市西区", "緯度": 43.072332, "経度": 141.304621 }, "geometry": { "type": "Point", "coordinates": [ 141.304621, 43.072332 ] } },
{ "type": "Feature", "properties": { "種別": "認可外保育所", "名称": "託児ルームさくらんぼ", "定員": null, "住所": "札幌市西区宮の沢1条1丁目9-3", "区": "札幌市西区", "緯度": 43.089983, "経度": 141.276369 }, "geometry": { "type": "Point", "coordinates": [ 141.276369, 43.089983 ] } },
{ "type": "Feature", "properties": { "種別": "認可外保育所", "名称": "札幌チャイルドスクール森のタータン宮の沢ルーム", "定員": null, "住所": "札幌市西区発寒6条10丁目1-3", "区": "札幌市西区", "緯度": 43.090297, "経度": 141.277313 }, "geometry": { "type": "Point", "coordinates": [ 141.277313, 43.090297 ] } },
{ "type": "Feature", "properties": { "種別": "認可外保育所", "名称": "花の保育園", "定員": null, "住所": "札幌市西区発寒6条11丁目1-50", "区": "札幌市西区", "緯度": 43.091942, "経度": 141.275446 }, "geometry": { "type": "Point", "coordinates": [ 141.275446, 43.091942 ] } },
{ "type": "Feature", "properties": { "種別": "認可外保育所", "名称": "子どもの森ポラーノ", "定員": null, "住所": "札幌市西区平和397-2", "区": "札幌市西区", "緯度": 43.054151, "経度": 141.226308 }, "geometry": { "type": "Point", "coordinates": [ 141.226308, 43.054151 ] } },
{ "type": "Feature", "properties": { "種別": "認可外保育所", "名称": "保育所ちびっこランド琴似園", "定員": null, "住所": "札幌市西区二十¥四軒3条4丁目6-9", "区": "札幌市西区", "緯度": 43.073339, "経度": 141.30862 }, "geometry": { "type": "Point", "coordinates": [ 141.30862, 43.073339 ] } },
{ "type": "Feature", "properties": { "種別": "認可外保育所", "名称": "保育所ちびっこランド西野園", "定員": null, "住所": "札幌市西区西野1条6丁目6-20", "区": "札幌市西区", "緯度": 43.08091, "経度": 141.278021 }, "geometry": { "type": "Point", "coordinates": [ 141.278021, 43.08091 ] } },
{ "type": "Feature", "properties": { "種別": "認可外保育所", "名称": "札幌チャイルドスクール森のタータン発寒南ルーム", "定員": null, "住所": "札幌市西区西町北9丁目1-6高伸ハイム", "区": "札幌市西区", "緯度": 43.080894, "経度": 141.286433 }, "geometry": { "type": "Point", "coordinates": [ 141.286433, 43.080894 ] } },
{ "type": "Feature", "properties": { "種別": "認可外保育所", "名称": "都市型保育園ポポラー札幌琴似園", "定員": null, "住所": "札幌市西区琴似4条1-1-1コルテナ?2F-D", "区": "札幌市西区", "緯度": 43.082164, "経度": 141.303792 }, "geometry": { "type": "Point", "coordinates": [ 141.303792, 43.082164 ] } },
{ "type": "Feature", "properties": { "種別": "認可外保育所", "名称": "アネラのひろば", "定員": null, "住所": "札幌市西区発寒12条3丁目4-13", "区": "札幌市西区", "緯度": 43.093901, "経度": 141.2939 }, "geometry": { "type": "Point", "coordinates": [ 141.2939, 43.093901 ] } },
{ "type": "Feature", "properties": { "種別": "認可外保育所", "名称": "みんなの保育園", "定員": null, "住所": "札幌市西区八軒6条西1丁目1-17", "区": "札幌市西区", "緯度": 43.087539, "経度": 141.31495 }, "geometry": { "type": "Point", "coordinates": [ 141.31495, 43.087539 ] } },
{ "type": "Feature", "properties": { "種別": "認可外保育所", "名称": "りとるKid'sクラブ発寒ルーム", "定員": null, "住所": "札幌市西区発寒1条3丁目4-5", "区": "札幌市西区", "緯度": 43.079092, "経度": 141.295102 }, "geometry": { "type": "Point", "coordinates": [ 141.295102, 43.079092 ] } },
{ "type": "Feature", "properties": { "種別": "認可外保育所", "名称": "さよちゃんハウス", "定員": null, "住所": "札幌市西区西野2条9丁目2-10-101号", "区": "札幌市西区", "緯度": 43.081881, "経度": 141.272807 }, "geometry": { "type": "Point", "coordinates": [ 141.272807, 43.081881 ] } },
{ "type": "Feature", "properties": { "種別": "認可外保育所", "名称": "保育園GoGoWoody八軒園", "定員": null, "住所": "札幌市西区八軒5条西4丁目1-36", "区": "札幌市西区", "緯度": 43.089529, "経度": 141.310465 }, "geometry": { "type": "Point", "coordinates": [ 141.310465, 43.089529 ] } },
{ "type": "Feature", "properties": { "種別": "認可外保育所", "名称": "保育所ko´ko´ルーム", "定員": null, "住所": "札幌市西区発寒5条3丁目12-1", "区": "札幌市西区", "緯度": 43.086269, "経度": 141.293986 }, "geometry": { "type": "Point", "coordinates": [ 141.293986, 43.086269 ] } },
{ "type": "Feature", "properties": { "種別": "認可保育所", "名称": "旭ケ丘乳児保育園", "定員": 30, "住所": "札幌市中央区南13条西23丁目1番40号", "区": "札幌市中央区", "緯度": 43.040224, "経度": 141.32451 }, "geometry": { "type": "Point", "coordinates": [ 141.32451, 43.040224 ] } },
{ "type": "Feature", "properties": { "種別": "認可保育所", "名称": "華園乳児保育園", "定員": 30, "住所": "札幌市中央区南18条西11丁目1番1号", "区": "札幌市中央区", "緯度": 43.0361, "経度": 141.343962 }, "geometry": { "type": "Point", "coordinates": [ 141.343962, 43.0361 ] } },
{ "type": "Feature", "properties": { "種別": "認可保育所", "名称": "札幌市大通夜間保育園", "定員": 60, "住所": "札幌市中央区大通東4丁目5番地1", "区": "札幌市中央区", "緯度": 43.06214, "経度": 141.362256 }, "geometry": { "type": "Point", "coordinates": [ 141.362256, 43.06214 ] } },
{ "type": "Feature", "properties": { "種別": "認可保育所", "名称": "鉄道弘済会札幌保育所", "定員": 60, "住所": "札幌市中央区南1条東7丁目2番15号", "区": "札幌市中央区", "緯度": 43.062149, "経度": 141.368058 }, "geometry": { "type": "Point", "coordinates": [ 141.368058, 43.062149 ] } },
{ "type": "Feature", "properties": { "種別": "認可保育所", "名称": "円山北町保育園", "定員": 60, "住所": "札幌市中央区北5条西27丁目3番1号", "区": "札幌市中央区", "緯度": 43.063027, "経度": 141.314815 }, "geometry": { "type": "Point", "coordinates": [ 141.314815, 43.063027 ] } },
{ "type": "Feature", "properties": { "種別": "認可保育所", "名称": "山鼻保育園", "定員": 60, "住所": "札幌市中央区南12条西8丁目3番16号", "区": "札幌市中央区", "緯度": 43.043669, "経度": 141.347786 }, "geometry": { "type": "Point", "coordinates": [ 141.347786, 43.043669 ] } },
{ "type": "Feature", "properties": { "種別": "認可保育所", "名称": "さより保育園", "定員": 60, "住所": "札幌市中央区南4条西15丁目1番35号", "区": "札幌市中央区", "緯度": 43.054168, "経度": 141.334175 }, "geometry": { "type": "Point", "coordinates": [ 141.334175, 43.054168 ] } },
{ "type": "Feature", "properties": { "種別": "認可保育所", "名称": "つくしの子共同保育所", "定員": 60, "住所": "札幌市中央区北4条西14丁目1番地25", "区": "札幌市中央区", "緯度": 43.064102, "経度": 141.334455 }, "geometry": { "type": "Point", "coordinates": [ 141.334455, 43.064102 ] } },
{ "type": "Feature", "properties": { "種別": "認可保育所", "名称": "大谷オアシス保育園", "定員": 60, "住所": "札幌市中央区大通西21丁目3番18号", "区": "札幌市中央区", "緯度": 43.057636, "経度": 141.324673 }, "geometry": { "type": "Point", "coordinates": [ 141.324673, 43.057636 ] } },
{ "type": "Feature", "properties": { "種別": "認可保育所", "名称": "愛育保育園", "定員": 80, "住所": "札幌市中央区南7条西18丁目3番29号", "区": "札幌市中央区", "緯度": 43.04939, "経度": 141.329287 }, "geometry": { "type": "Point", "coordinates": [ 141.329287, 43.04939 ] } },
{ "type": "Feature", "properties": { "種別": "認可保育所", "名称": "駒鳥保育所", "定員": 90, "住所": "札幌市中央区北1条東8丁目1番地41", "区": "札幌市中央区", "緯度": 43.065046, "経度": 141.367978 }, "geometry": { "type": "Point", "coordinates": [ 141.367978, 43.065046 ] } },
{ "type": "Feature", "properties": { "種別": "認可保育所", "名称": "救世軍桑園保育所", "定員": 90, "住所": "札幌市中央区北5条西14丁目1番地29", "区": "札幌市中央区", "緯度": 43.065506, "経度": 141.334081 }, "geometry": { "type": "Point", "coordinates": [ 141.334081, 43.065506 ] } },
{ "type": "Feature", "properties": { "種別": "認可保育所", "名称": "宮の森保育園", "定員": 90, "住所": "札幌市中央区宮の森2条5丁目2番20号", "区": "札幌市中央区", "緯度": 43.061749, "経度": 141.309038 }, "geometry": { "type": "Point", "coordinates": [ 141.309038, 43.061749 ] } },
{ "type": "Feature", "properties": { "種別": "認可保育所", "名称": "札幌市しせいかん保育園", "定員": 120, "住所": "札幌市中央区南3条西7丁目1番地1", "区": "札幌市中央区", "緯度": 43.055464, "経度": 141.34763 }, "geometry": { "type": "Point", "coordinates": [ 141.34763, 43.055464 ] } },
{ "type": "Feature", "properties": { "種別": "認可保育所", "名称": "山鼻華園保育園", "定員": 120, "住所": "札幌市中央区南18条西11丁目1番2号", "区": "札幌市中央区", "緯度": 43.036068, "経度": 141.343435 }, "geometry": { "type": "Point", "coordinates": [ 141.343435, 43.036068 ] } },
{ "type": "Feature", "properties": { "種別": "認可保育所", "名称": "吉田学園くりの木保育園", "定員": 120, "住所": "札幌市中央区北11条西17丁目36番122", "区": "札幌市中央区", "緯度": 43.07153, "経度": 141.327051 }, "geometry": { "type": "Point", "coordinates": [ 141.327051, 43.07153 ] } },
{ "type": "Feature", "properties": { "種別": "認可保育所", "名称": "旭ケ丘保育園", "定員": 150, "住所": "札幌市中央区南13条西23丁目1番45号", "区": "札幌市中央区", "緯度": 43.040502, "経度": 141.324955 }, "geometry": { "type": "Point", "coordinates": [ 141.324955, 43.040502 ] } },
{ "type": "Feature", "properties": { "種別": "認可外保育所", "名称": "香陽館プレスクール", "定員": null, "住所": "札幌市中央区南3条西24丁目3-22", "区": "札幌市中央区", "緯度": 43.053931, "経度": 141.321323 }, "geometry": { "type": "Point", "coordinates": [ 141.321323, 43.053931 ] } },
{ "type": "Feature", "properties": { "種別": "認可外保育所", "名称": "北円山さくらんぼ保育園", "定員": null, "住所": "札幌市中央区北7条西27丁目1-8", "区": "札幌市中央区", "緯度": 43.065345, "経度": 141.314714 }, "geometry": { "type": "Point", "coordinates": [ 141.314714, 43.065345 ] } },
{ "type": "Feature", "properties": { "種別": "認可外保育所", "名称": "こどもプラザ青い鳥", "定員": null, "住所": "札幌市中央区北9条西24丁目3-14", "区": "札幌市中央区", "緯度": 43.068888, "経度": 141.316946 }, "geometry": { "type": "Point", "coordinates": [ 141.316946, 43.068888 ] } },
{ "type": "Feature", "properties": { "種別": "認可外保育所", "名称": "都市型保育園ポポラー札幌南4条園", "定員": null, "住所": "札幌市中央区南4条西10丁目1005-4", "区": "札幌市中央区", "緯度": 43.055092, "経度": 141.34336 }, "geometry": { "type": "Point", "coordinates": [ 141.34336, 43.055092 ] } },
{ "type": "Feature", "properties": { "種別": "認可外保育所", "名称": "円山手つなぎ保育園", "定員": null, "住所": "札幌市中央区南4条西23丁目1-28", "区": "札幌市中央区", "緯度": 43.052771, "経度": 141.323104 }, "geometry": { "type": "Point", "coordinates": [ 141.323104, 43.052771 ] } },
{ "type": "Feature", "properties": { "種別": "認可外保育所", "名称": "バズランド保育園", "定員": null, "住所": "札幌市中央区北3条西28丁目1-23", "区": "札幌市中央区", "緯度": 43.059686, "経度": 141.314628 }, "geometry": { "type": "Point", "coordinates": [ 141.314628, 43.059686 ] } },
{ "type": "Feature", "properties": { "種別": "認可外保育所", "名称": "保育所ちびっこランド宮の森園", "定員": null, "住所": "札幌市中央区宮の森4条5丁目1-10", "区": "札幌市中央区", "緯度": 43.06431, "経度": 141.303985 }, "geometry": { "type": "Point", "coordinates": [ 141.303985, 43.06431 ] } },
{ "type": "Feature", "properties": { "種別": "認可外保育所", "名称": "保育所ちびっこランド円山園", "定員": null, "住所": "札幌市中央区北1条西22丁目3-17", "区": "札幌市中央区", "緯度": 43.058839, "経度": 141.322739 }, "geometry": { "type": "Point", "coordinates": [ 141.322739, 43.058839 ] } },
{ "type": "Feature", "properties": { "種別": "認可外保育所", "名称": "託児ルームこどもの家", "定員": null, "住所": "札幌市中央区北1条西19丁目1-7", "区": "札幌市中央区", "緯度": 43.058698, "経度": 141.327975 }, "geometry": { "type": "Point", "coordinates": [ 141.327975, 43.058698 ] } },
{ "type": "Feature", "properties": { "種別": "認可外保育所", "名称": "はなまるキッズ札幌駅前店", "定員": null, "住所": "札幌市中央区北4条西1丁目4-1", "区": "札幌市中央区", "緯度": 43.067007, "経度": 141.354883 }, "geometry": { "type": "Point", "coordinates": [ 141.354883, 43.067007 ] } },
{ "type": "Feature", "properties": { "種別": "認可外保育所", "名称": "あんあん保育園中央ルーム", "定員": null, "住所": "札幌市中央区南9条西6丁目1-30", "区": "札幌市中央区", "緯度": 43.048428, "経度": 141.350398 }, "geometry": { "type": "Point", "coordinates": [ 141.350398, 43.048428 ] } },
{ "type": "Feature", "properties": { "種別": "認可外保育所", "名称": "チャイルド総合保育園", "定員": null, "住所": "札幌市中央区南6条西8丁目2-2", "区": "札幌市中央区", "緯度": 43.052912, "経度": 141.34733 }, "geometry": { "type": "Point", "coordinates": [ 141.34733, 43.052912 ] } },
{ "type": "Feature", "properties": { "種別": "認可外保育所", "名称": "ありんこ保育園", "定員": null, "住所": "札幌市中央区南5条西7丁目7", "区": "札幌市中央区", "緯度": 43.054182, "経度": 141.348456 }, "geometry": { "type": "Point", "coordinates": [ 141.348456, 43.054182 ] } },
{ "type": "Feature", "properties": { "種別": "認可外保育所", "名称": "特定非営利活動法人札幌ベビールーム大通すずらん保育園", "定員": null, "住所": "札幌市中央区大通西13丁目4-111", "区": "札幌市中央区", "緯度": 43.05793, "経度": 141.336858 }, "geometry": { "type": "Point", "coordinates": [ 141.336858, 43.05793 ] } },
{ "type": "Feature", "properties": { "種別": "認可外保育所", "名称": "ハローディア", "定員": null, "住所": "札幌市中央区南9条西3丁目2-1", "区": "札幌市中央区", "緯度": 43.0494, "経度": 141.35617 }, "geometry": { "type": "Point", "coordinates": [ 141.35617, 43.0494 ] } },
{ "type": "Feature", "properties": { "種別": "認可外保育所", "名称": "ナトリハウス", "定員": null, "住所": "札幌市中央区南6条西10丁目1025-35", "区": "札幌市中央区", "緯度": 43.051344, "経度": 141.34263 }, "geometry": { "type": "Point", "coordinates": [ 141.34263, 43.051344 ] } },
{ "type": "Feature", "properties": { "種別": "認可外保育所", "名称": "ひよこ保育園中島キッズルーム", "定員": null, "住所": "札幌市中央区南10条西1丁目", "区": "札幌市中央区", "緯度": 43.047667, "経度": 141.359936 }, "geometry": { "type": "Point", "coordinates": [ 141.359936, 43.047667 ] } },
{ "type": "Feature", "properties": { "種別": "認可外保育所", "名称": "マミーポッケオリエンタル園", "定員": null, "住所": "札幌市中央区南9条西4丁目1-7", "区": "札幌市中央区", "緯度": 43.049275, "経度": 141.354733 }, "geometry": { "type": "Point", "coordinates": [ 141.354733, 43.049275 ] } },
{ "type": "Feature", "properties": { "種別": "認可外保育所", "名称": "マミーポッケ西11丁目園", "定員": null, "住所": "札幌市中央区南1条西10丁目", "区": "札幌市中央区", "緯度": 43.057961, "経度": 141.341611 }, "geometry": { "type": "Point", "coordinates": [ 141.341611, 43.057961 ] } },
{ "type": "Feature", "properties": { "種別": "認可外保育所", "名称": "マミーポッケ大通園", "定員": null, "住所": "札幌市中央区南1条西1丁目", "区": "札幌市中央区", "緯度": 43.059678, "経度": 141.356696 }, "geometry": { "type": "Point", "coordinates": [ 141.356696, 43.059678 ] } },
{ "type": "Feature", "properties": { "種別": "認可外保育所", "名称": "保育所ちびっこランドふしみ園", "定員": null, "住所": "札幌市中央区南14条西18丁目7-12", "区": "札幌市中央区", "緯度": 43.04065, "経度": 141.329992 }, "geometry": { "type": "Point", "coordinates": [ 141.329992, 43.04065 ] } },
{ "type": "Feature", "properties": { "種別": "認可外保育所", "名称": "保育所ちびっこランド札幌桑園", "定員": null, "住所": "札幌市中央区北8条西14丁目28", "区": "札幌市中央区", "緯度": 43.068559, "経度": 141.333704 }, "geometry": { "type": "Point", "coordinates": [ 141.333704, 43.068559 ] } },
{ "type": "Feature", "properties": { "種別": "認可外保育所", "名称": "託児ルームテンダリー", "定員": null, "住所": "札幌市中央区南7条西3丁目青樹社6F", "区": "札幌市中央区", "緯度": 43.051783, "経度": 141.354604 }, "geometry": { "type": "Point", "coordinates": [ 141.354604, 43.051783 ] } },
{ "type": "Feature", "properties": { "種別": "認可外保育所", "名称": "めるる", "定員": null, "住所": "札幌市中央区南7条西9丁目札幌舘ビル", "区": "札幌市中央区", "緯度": 43.051564, "経度": 141.346021 }, "geometry": { "type": "Point", "coordinates": [ 141.346021, 43.051564 ] } },
{ "type": "Feature", "properties": { "種別": "認可外保育所", "名称": "札幌ハイジ保育園苗穂保育ルーム", "定員": null, "住所": "札幌市中央区北3条東13丁目99-6", "区": "札幌市中央区", "緯度": 43.068418, "経度": 141.376855 }, "geometry": { "type": "Point", "coordinates": [ 141.376855, 43.068418 ] } },
{ "type": "Feature", "properties": { "種別": "認可外保育所", "名称": "よつば保育園", "定員": null, "住所": "札幌市中央区南11条西7丁目2-20", "区": "札幌市中央区", "緯度": 43.045386, "経度": 141.349518 }, "geometry": { "type": "Point", "coordinates": [ 141.349518, 43.045386 ] } },
{ "type": "Feature", "properties": { "種別": "認可外保育所", "名称": "エンジェル・ランド", "定員": null, "住所": "札幌市中央区南5条西18丁目1-1", "区": "札幌市中央区", "緯度": 43.052771, "経度": 141.329563 }, "geometry": { "type": "Point", "coordinates": [ 141.329563, 43.052771 ] } },
{ "type": "Feature", "properties": { "種別": "認可外保育所", "名称": "ピッコロキッズ大通園", "定員": null, "住所": "札幌市中央区南1条西9丁目6-3", "区": "札幌市中央区", "緯度": 43.0576, "経度": 141.343617 }, "geometry": { "type": "Point", "coordinates": [ 141.343617, 43.0576 ] } },
{ "type": "Feature", "properties": { "種別": "認可外保育所", "名称": "キッズルーム苗穂店", "定員": 54, "住所": "札幌市中央区北1条東14丁目1番地10号", "区": "札幌市中央区", "緯度": 43.066489, "経度": 141.380053 }, "geometry": { "type": "Point", "coordinates": [ 141.380053, 43.066489 ] } },
{ "type": "Feature", "properties": { "種別": "幼稚園", "名称": "カトリック聖園", "定員": 90, "住所": "札幌市中央区北1条東6丁目10", "区": "札幌市中央区", "緯度": 43.064695, "経度": 141.365589 }, "geometry": { "type": "Point", "coordinates": [ 141.365589, 43.064695 ] } },
{ "type": "Feature", "properties": { "種別": "幼稚園", "名称": "札幌ル‐テル", "定員": 100, "住所": "札幌市中央区南9条西21丁目2-20", "区": "札幌市中央区", "緯度": 43.046169, "経度": 141.324889 }, "geometry": { "type": "Point", "coordinates": [ 141.324889, 43.046169 ] } },
{ "type": "Feature", "properties": { "種別": "幼稚園", "名称": "桑園", "定員": 105, "住所": "札幌市中央区北7条西13丁目2番地", "区": "札幌市中央区", "緯度": 43.067166, "経度": 141.335313 }, "geometry": { "type": "Point", "coordinates": [ 141.335313, 43.067166 ] } },
{ "type": "Feature", "properties": { "種別": "幼稚園", "名称": "ひかり", "定員": 105, "住所": "札幌市中央区南21条西14丁目", "区": "札幌市中央区", "緯度": 43.030504, "経度": 141.338426 }, "geometry": { "type": "Point", "coordinates": [ 141.338426, 43.030504 ] } },
{ "type": "Feature", "properties": { "種別": "幼稚園", "名称": "札幌大谷第二", "定員": 120, "住所": "札幌市中央区大通西21丁目3-18", "区": "札幌市中央区", "緯度": 43.057649, "経度": 141.32463 }, "geometry": { "type": "Point", "coordinates": [ 141.32463, 43.057649 ] } },
{ "type": "Feature", "properties": { "種別": "幼稚園", "名称": "さゆり", "定員": 120, "住所": "札幌市中央区北4条西23丁目2-8", "区": "札幌市中央区", "緯度": 43.061888, "経度": 141.320648 }, "geometry": { "type": "Point", "coordinates": [ 141.320648, 43.061888 ] } },
{ "type": "Feature", "properties": { "種別": "幼稚園", "名称": "ばんけい", "定員": 120, "住所": "札幌市中央区盤溪415番地13", "区": "札幌市中央区", "緯度": 43.029796, "経度": 141.280339 }, "geometry": { "type": "Point", "coordinates": [ 141.280339, 43.029796 ] } },
{ "type": "Feature", "properties": { "種別": "幼稚園", "名称": "こひつじ", "定員": 120, "住所": "札幌市中央区南16条西12丁目1番5号", "区": "札幌市中央区", "緯度": 43.038281, "経度": 141.342037 }, "geometry": { "type": "Point", "coordinates": [ 141.342037, 43.038281 ] } },
{ "type": "Feature", "properties": { "種別": "幼稚園", "名称": "めばえ", "定員": 130, "住所": "札幌市中央区南12条西12丁目2番27号", "区": "札幌市中央区", "緯度": 43.043475, "経度": 141.340397 }, "geometry": { "type": "Point", "coordinates": [ 141.340397, 43.043475 ] } },
{ "type": "Feature", "properties": { "種別": "幼稚園", "名称": "札幌いづみ", "定員": 140, "住所": "札幌市中央区南17条西9丁目1-35", "区": "札幌市中央区", "緯度": 43.037364, "経度": 141.346509 }, "geometry": { "type": "Point", "coordinates": [ 141.346509, 43.037364 ] } },
{ "type": "Feature", "properties": { "種別": "幼稚園", "名称": "宮の森", "定員": 160, "住所": "札幌市中央区宮の森904番地7", "区": "札幌市中央区", "緯度": 43.049116, "経度": 141.291505 }, "geometry": { "type": "Point", "coordinates": [ 141.291505, 43.049116 ] } },
{ "type": "Feature", "properties": { "種別": "幼稚園", "名称": "つぼみ", "定員": 175, "住所": "札幌市中央区南7条西25丁目1-5", "区": "札幌市中央区", "緯度": 43.048473, "経度": 141.321677 }, "geometry": { "type": "Point", "coordinates": [ 141.321677, 43.048473 ] } },
{ "type": "Feature", "properties": { "種別": "幼稚園", "名称": "札幌大谷", "定員": 180, "住所": "札幌市中央区南7条西7丁目290-2", "区": "札幌市中央区", "緯度": 43.051002, "経度": 141.348452 }, "geometry": { "type": "Point", "coordinates": [ 141.348452, 43.051002 ] } },
{ "type": "Feature", "properties": { "種別": "幼稚園", "名称": "大通", "定員": 210, "住所": "札幌市中央区大通西16丁目3番地", "区": "札幌市中央区", "緯度": 43.057875, "経度": 141.332757 }, "geometry": { "type": "Point", "coordinates": [ 141.332757, 43.057875 ] } },
{ "type": "Feature", "properties": { "種別": "幼稚園", "名称": "札幌円山", "定員": 210, "住所": "札幌市中央区北2条西23丁目1-10", "区": "札幌市中央区", "緯度": 43.059194, "経度": 141.321176 }, "geometry": { "type": "Point", "coordinates": [ 141.321176, 43.059194 ] } },
{ "type": "Feature", "properties": { "種別": "認可保育所", "名称": "札幌市あけぼの保育園", "定員": 90, "住所": "札幌市中央区南11条西10丁目1番3号", "区": "札幌市中央区", "緯度": 43.045613, "経度": 141.343758 }, "geometry": { "type": "Point", "coordinates": [ 141.343758, 43.045613 ] } },
{ "type": "Feature", "properties": { "種別": "幼稚園", "名称": "中央幼稚園", "定員": 90, "住所": "札幌市中央区北2条西11丁目", "区": "札幌市中央区", "緯度": 43.062398, "経度": 141.339669 }, "geometry": { "type": "Point", "coordinates": [ 141.339669, 43.062398 ] } },
{ "type": "Feature", "properties": { "種別": "認可外保育所", "名称": "株式会社マミーハウス", "定員": null, "住所": "札幌市中央区南16条西9丁目2-21", "区": "札幌市中央区", "緯度": 43.037764, "経度": 141.345785 }, "geometry": { "type": "Point", "coordinates": [ 141.345785, 43.037764 ] } },
{ "type": "Feature", "properties": { "種別": "認可保育所", "名称": "中沼保育園", "定員": 45, "住所": "札幌市東区中沼町72番7", "区": "札幌市東区", "緯度": 43.131925, "経度": 141.434582 }, "geometry": { "type": "Point", "coordinates": [ 141.434582, 43.131925 ] } },
{ "type": "Feature", "properties": { "種別": "認可保育所", "名称": "札幌厚成福祉会保育所", "定員": 60, "住所": "札幌市東区北8条東15丁目2番13号", "区": "札幌市東区", "緯度": 43.074889, "経度": 141.376754 }, "geometry": { "type": "Point", "coordinates": [ 141.376754, 43.074889 ] } },
{ "type": "Feature", "properties": { "種別": "認可保育所", "名称": "心の里親保育園", "定員": 60, "住所": "札幌市東区北19条東6丁目1番5号", "区": "札幌市東区", "緯度": 43.08547, "経度": 141.360171 }, "geometry": { "type": "Point", "coordinates": [ 141.360171, 43.08547 ] } },
{ "type": "Feature", "properties": { "種別": "認可保育所", "名称": "元町保育園", "定員": 60, "住所": "札幌市東区北27条東19丁目6番10号", "区": "札幌市東区", "緯度": 43.09827, "経度": 141.379964 }, "geometry": { "type": "Point", "coordinates": [ 141.379964, 43.09827 ] } },
{ "type": "Feature", "properties": { "種別": "認可保育所", "名称": "北栄マスカット保育園", "定員": 60, "住所": "札幌市東区北30条東9丁目3番20号", "区": "札幌市東区", "緯度": 43.099582, "経度": 141.361965 }, "geometry": { "type": "Point", "coordinates": [ 141.361965, 43.099582 ] } },
{ "type": "Feature", "properties": { "種別": "認可保育所", "名称": "栄町マスカット保育園", "定員": 60, "住所": "札幌市東区北37条東14丁目1番25号", "区": "札幌市東区", "緯度": 43.107495, "経度": 141.366558 }, "geometry": { "type": "Point", "coordinates": [ 141.366558, 43.107495 ] } },
{ "type": "Feature", "properties": { "種別": "認可保育所", "名称": "栄町あおぞら保育園", "定員": 60, "住所": "札幌市東区北43条東16丁目2番8号", "区": "札幌市東区", "緯度": 43.116149, "経度": 141.366738 }, "geometry": { "type": "Point", "coordinates": [ 141.366738, 43.116149 ] } },
{ "type": "Feature", "properties": { "種別": "認可保育所", "名称": "勤医協ぽぷら保育園", "定員": 60, "住所": "札幌市東区伏古9条2丁目9番4号", "区": "札幌市東区", "緯度": 43.094369, "経度": 141.394863 }, "geometry": { "type": "Point", "coordinates": [ 141.394863, 43.094369 ] } },
{ "type": "Feature", "properties": { "種別": "認可保育所", "名称": "本町保育園", "定員": 60, "住所": "札幌市東区本町1条6丁目1番5号", "区": "札幌市東区", "緯度": 43.076283, "経度": 141.389616 }, "geometry": { "type": "Point", "coordinates": [ 141.389616, 43.076283 ] } },
{ "type": "Feature", "properties": { "種別": "認可保育所", "名称": "札苗保育園", "定員": 70, "住所": "札幌市東区東苗穂7条3丁目1番5号", "区": "札幌市東区", "緯度": 43.093293, "経度": 141.412258 }, "geometry": { "type": "Point", "coordinates": [ 141.412258, 43.093293 ] } },
{ "type": "Feature", "properties": { "種別": "認可保育所", "名称": "丘珠ひばり保育園", "定員": 80, "住所": "札幌市東区丘珠町593番地27", "区": "札幌市東区", "緯度": 43.120883, "経度": 141.403637 }, "geometry": { "type": "Point", "coordinates": [ 141.403637, 43.120883 ] } },
{ "type": "Feature", "properties": { "種別": "認可保育所", "名称": "光星はとポッポ保育園", "定員": 80, "住所": "札幌市東区北15条東7丁目1番10号", "区": "札幌市東区", "緯度": 43.080674, "経度": 141.362495 }, "geometry": { "type": "Point", "coordinates": [ 141.362495, 43.080674 ] } },
{ "type": "Feature", "properties": { "種別": "認可保育所", "名称": "苗穂保育園", "定員": 90, "住所": "札幌市東区北7条東18丁目1番8号", "区": "札幌市東区", "緯度": 43.073972, "経度": 141.381948 }, "geometry": { "type": "Point", "coordinates": [ 141.381948, 43.073972 ] } },
{ "type": "Feature", "properties": { "種別": "認可保育所", "名称": "札幌第2福ちゃん保育園", "定員": 90, "住所": "札幌市東区北18条東16丁目2番13号", "区": "札幌市東区", "緯度": 43.086781, "経度": 141.375208 }, "geometry": { "type": "Point", "coordinates": [ 141.375208, 43.086781 ] } },
{ "type": "Feature", "properties": { "種別": "認可保育所", "名称": "札幌厚成福祉会第二保育所", "定員": 90, "住所": "札幌市東区東苗穂5条3丁目3番45号", "区": "札幌市東区", "緯度": 43.08861, "経度": 141.409584 }, "geometry": { "type": "Point", "coordinates": [ 141.409584, 43.08861 ] } },
{ "type": "Feature", "properties": { "種別": "認可保育所", "名称": "元町杉の子保育園", "定員": 90, "住所": "札幌市東区北14条東16丁目1番31号", "区": "札幌市東区", "緯度": 43.081434, "経度": 141.377704 }, "geometry": { "type": "Point", "coordinates": [ 141.377704, 43.081434 ] } },
{ "type": "Feature", "properties": { "種別": "認可保育所", "名称": "東苗穂保育園", "定員": 90, "住所": "札幌市東区本町2条6丁目3番7号", "区": "札幌市東区", "緯度": 43.078333, "経度": 141.392308 }, "geometry": { "type": "Point", "coordinates": [ 141.392308, 43.078333 ] } },
{ "type": "Feature", "properties": { "種別": "認可保育所", "名称": "モエレはとポッポ保育園", "定員": 90, "住所": "札幌市東区東苗穂12条1丁目1番50号", "区": "札幌市東区", "緯度": 43.106969, "経度": 141.414443 }, "geometry": { "type": "Point", "coordinates": [ 141.414443, 43.106969 ] } },
{ "type": "Feature", "properties": { "種別": "認可保育所", "名称": "伏古かしわ保育園", "定員": 90, "住所": "札幌市東区伏古4条4丁目2番9号", "区": "札幌市東区", "緯度": 43.085972, "経度": 141.393835 }, "geometry": { "type": "Point", "coordinates": [ 141.393835, 43.085972 ] } },
{ "type": "Feature", "properties": { "種別": "認可保育所", "名称": "かりき保育園", "定員": 90, "住所": "札幌市東区東雁来13条2丁目9番12号", "区": "札幌市東区", "緯度": 43.104653, "経度": 141.431467 }, "geometry": { "type": "Point", "coordinates": [ 141.431467, 43.104653 ] } },
{ "type": "Feature", "properties": { "種別": "認可保育所", "名称": "開成みどり保育園", "定員": 90, "住所": "札幌市東区伏古7条2丁目3番3号", "区": "札幌市東区", "緯度": 43.091611, "経度": 141.391213 }, "geometry": { "type": "Point", "coordinates": [ 141.391213, 43.091611 ] } },
{ "type": "Feature", "properties": { "種別": "認可保育所", "名称": "元町にこにこ保育園", "定員": 90, "住所": "札幌市東区東23条東16丁目1番11号", "区": "札幌市東区", "緯度": 43.093493, "経度": 141.372242 }, "geometry": { "type": "Point", "coordinates": [ 141.372242, 43.093493 ] } },
{ "type": "Feature", "properties": { "種別": "認可保育所", "名称": "北栄保育園", "定員": 120, "住所": "札幌市東区北35条東5丁目2番1号", "区": "札幌市東区", "緯度": 43.104357, "経度": 141.352948 }, "geometry": { "type": "Point", "coordinates": [ 141.352948, 43.104357 ] } },
{ "type": "Feature", "properties": { "種別": "認可保育所", "名称": "明園保育園", "定員": 120, "住所": "札幌市東区北23条東14丁目1番5号", "区": "札幌市東区", "緯度": 43.092355, "経度": 141.369497 }, "geometry": { "type": "Point", "coordinates": [ 141.369497, 43.092355 ] } },
{ "type": "Feature", "properties": { "種別": "認可保育所", "名称": "日の丸保育園", "定員": 120, "住所": "札幌市東区北40条東9丁目3番15号", "区": "札幌市東区", "緯度": 43.110245, "経度": 141.358808 }, "geometry": { "type": "Point", "coordinates": [ 141.358808, 43.110245 ] } },
{ "type": "Feature", "properties": { "種別": "認可保育所", "名称": "はらっぱ保育園", "定員": 120, "住所": "札幌市東区北27条東6丁目1番18号", "区": "札幌市東区", "緯度": 43.096719, "経度": 141.357393 }, "geometry": { "type": "Point", "coordinates": [ 141.357393, 43.096719 ] } },
{ "type": "Feature", "properties": { "種別": "認可保育所", "名称": "丘珠マスカット保育園", "定員": 120, "住所": "札幌市東区北36条東29丁目3番3号", "区": "札幌市東区", "緯度": 43.100108, "経度": 141.395834 }, "geometry": { "type": "Point", "coordinates": [ 141.395834, 43.100108 ] } },
{ "type": "Feature", "properties": { "種別": "認可保育所", "名称": "愛和新穂保育園", "定員": 120, "住所": "札幌市東区北9条東11丁目3番7号", "区": "札幌市東区", "緯度": 43.075141, "経度": 141.371069 }, "geometry": { "type": "Point", "coordinates": [ 141.371069, 43.075141 ] } },
{ "type": "Feature", "properties": { "種別": "認可保育所", "名称": "さっぽろ夢保育園", "定員": 120, "住所": "札幌市東区北36条東17丁目1番30号", "区": "札幌市東区", "緯度": 43.106938, "経度": 141.371617 }, "geometry": { "type": "Point", "coordinates": [ 141.371617, 43.106938 ] } },
{ "type": "Feature", "properties": { "種別": "認可保育所", "名称": "札幌フラワ‐保育園", "定員": 140, "住所": "札幌市東区北18条東6丁目1番30号", "区": "札幌市東区", "緯度": 43.084082, "経度": 141.360755 }, "geometry": { "type": "Point", "coordinates": [ 141.360755, 43.084082 ] } },
{ "type": "Feature", "properties": { "種別": "認可保育所", "名称": "北栄みどり保育園", "定員": 150, "住所": "札幌市東区北32条東13丁目1番26号", "区": "札幌市東区", "緯度": 43.101785, "経度": 141.365971 }, "geometry": { "type": "Point", "coordinates": [ 141.365971, 43.101785 ] } },
{ "type": "Feature", "properties": { "種別": "認可保育所", "名称": "栄保育園", "定員": 150, "住所": "札幌市東区北47条東7丁目2番13号", "区": "札幌市東区", "緯度": 43.118465, "経度": 141.352641 }, "geometry": { "type": "Point", "coordinates": [ 141.352641, 43.118465 ] } },
{ "type": "Feature", "properties": { "種別": "認可保育所", "名称": "元町みどり保育園", "定員": 180, "住所": "札幌市東区北27条東22丁目5番11号", "区": "札幌市東区", "緯度": 43.09908, "経度": 141.386751 }, "geometry": { "type": "Point", "coordinates": [ 141.386751, 43.09908 ] } },
{ "type": "Feature", "properties": { "種別": "認可外保育所", "名称": "すこやか保育園北海道", "定員": null, "住所": "札幌市東区北11条東6丁目1-35", "区": "札幌市東区", "緯度": 43.076098, "経度": 141.362865 }, "geometry": { "type": "Point", "coordinates": [ 141.362865, 43.076098 ] } },
{ "type": "Feature", "properties": { "種別": "認可外保育所", "名称": "札幌ハイジ保育園元町保育ルーム", "定員": null, "住所": "札幌市東区北22条東15丁目1-12", "区": "札幌市東区", "緯度": 43.091096, "経度": 141.371448 }, "geometry": { "type": "Point", "coordinates": [ 141.371448, 43.091096 ] } },
{ "type": "Feature", "properties": { "種別": "幼稚園", "名称": "聖ミカエル", "定員": 90, "住所": "札幌市東区北19条東3丁目4-5", "区": "札幌市東区", "緯度": 43.085359, "経度": 141.354866 }, "geometry": { "type": "Point", "coordinates": [ 141.354866, 43.085359 ] } },
{ "type": "Feature", "properties": { "種別": "幼稚園", "名称": "札幌大谷大学附属", "定員": 200, "住所": "札幌市東区北16条東8丁目2-1", "区": "札幌市東区", "緯度": 43.082512, "経度": 141.363697 }, "geometry": { "type": "Point", "coordinates": [ 141.363697, 43.082512 ] } },
{ "type": "Feature", "properties": { "種別": "幼稚園", "名称": "札幌愛珠", "定員": 200, "住所": "札幌市東区北38条東9丁目1-38", "区": "札幌市東区", "緯度": 43.107523, "経度": 141.359808 }, "geometry": { "type": "Point", "coordinates": [ 141.359808, 43.107523 ] } },
{ "type": "Feature", "properties": { "種別": "幼稚園", "名称": "栄光", "定員": 200, "住所": "札幌市東区北44条東2丁目1番20号", "区": "札幌市東区", "緯度": 43.113133, "経度": 141.347615 }, "geometry": { "type": "Point", "coordinates": [ 141.347615, 43.113133 ] } },
{ "type": "Feature", "properties": { "種別": "幼稚園", "名称": "あゆみ", "定員": 200, "住所": "札幌市東区伏古7条5丁目5番5号", "区": "札幌市東区", "緯度": 43.088082, "経度": 141.398084 }, "geometry": { "type": "Point", "coordinates": [ 141.398084, 43.088082 ] } },
{ "type": "Feature", "properties": { "種別": "幼稚園", "名称": "天使", "定員": 200, "住所": "札幌市東区北11条東2丁目", "区": "札幌市東区", "緯度": 43.075416, "経度": 141.3557 }, "geometry": { "type": "Point", "coordinates": [ 141.3557, 43.075416 ] } },
{ "type": "Feature", "properties": { "種別": "幼稚園", "名称": "北栄", "定員": 240, "住所": "札幌市東区北31条東9丁目1番6号", "区": "札幌市東区", "緯度": 43.100163, "経度": 141.360726 }, "geometry": { "type": "Point", "coordinates": [ 141.360726, 43.100163 ] } },
{ "type": "Feature", "properties": { "種別": "幼稚園", "名称": "あゆみ第二", "定員": 250, "住所": "札幌市東区伏古9条3丁目2番19号", "区": "札幌市東区", "緯度": 43.092776, "経度": 141.396667 }, "geometry": { "type": "Point", "coordinates": [ 141.396667, 43.092776 ] } },
{ "type": "Feature", "properties": { "種別": "幼稚園", "名称": "ふしこ", "定員": 320, "住所": "札幌市東区本町1条5丁目1番15号", "区": "札幌市東区", "緯度": 43.07675, "経度": 141.388225 }, "geometry": { "type": "Point", "coordinates": [ 141.388225, 43.07675 ] } },
{ "type": "Feature", "properties": { "種別": "幼稚園", "名称": "清明", "定員": 320, "住所": "札幌市東区北10条東14丁目2番8号", "区": "札幌市東区", "緯度": 43.076861, "経度": 141.375004 }, "geometry": { "type": "Point", "coordinates": [ 141.375004, 43.076861 ] } },
{ "type": "Feature", "properties": { "種別": "幼稚園", "名称": "丘珠", "定員": 330, "住所": "札幌市東区北37条東27丁目1番1号", "区": "札幌市東区", "緯度": 43.103719, "経度": 141.389612 }, "geometry": { "type": "Point", "coordinates": [ 141.389612, 43.103719 ] } },
{ "type": "Feature", "properties": { "種別": "幼稚園", "名称": "札苗", "定員": 350, "住所": "札幌市東区東苗穂8条3丁目3番20号", "区": "札幌市東区", "緯度": 43.096943, "経度": 141.415416 }, "geometry": { "type": "Point", "coordinates": [ 141.415416, 43.096943 ] } },
{ "type": "Feature", "properties": { "種別": "幼稚園", "名称": "札幌", "定員": 370, "住所": "札幌市東区北24条東18丁目4番37号", "区": "札幌市東区", "緯度": 43.09522, "経度": 141.378308 }, "geometry": { "type": "Point", "coordinates": [ 141.378308, 43.09522 ] } },
{ "type": "Feature", "properties": { "種別": "幼稚園", "名称": "札幌あかしや", "定員": 400, "住所": "札幌市東区北44条東12丁目2番1号", "区": "札幌市東区", "緯度": 43.115521, "経度": 141.360224 }, "geometry": { "type": "Point", "coordinates": [ 141.360224, 43.115521 ] } },
{ "type": "Feature", "properties": { "種別": "認可保育所", "名称": "札幌市みかほ保育園", "定員": 110, "住所": "札幌市東区北19条東5丁目", "区": "札幌市東区", "緯度": 43.084998, "経度": 141.358699 }, "geometry": { "type": "Point", "coordinates": [ 141.358699, 43.084998 ] } },
{ "type": "Feature", "properties": { "種別": "認可保育所", "名称": "東区保育・子育て支援センター", "定員": 120, "住所": "札幌市東区北9条東7丁目", "区": "札幌市東区", "緯度": 43.073889, "経度": 141.364561 }, "geometry": { "type": "Point", "coordinates": [ 141.364561, 43.073889 ] } },
{ "type": "Feature", "properties": { "種別": "幼稚園", "名称": "すずらん幼稚園", "定員": null, "住所": "札幌市東区北36条東16丁目1-52", "区": "札幌市東区", "緯度": 43.106529, "経度": 141.370611 }, "geometry": { "type": "Point", "coordinates": [ 141.370611, 43.106529 ] } },
{ "type": "Feature", "properties": { "種別": "幼稚園", "名称": "ひがしなえば幼稚園", "定員": 90, "住所": "札幌市東区東苗穂4条2丁目1-35", "区": "札幌市東区", "緯度": 43.088025, "経度": 141.405609 }, "geometry": { "type": "Point", "coordinates": [ 141.405609, 43.088025 ] } },
{ "type": "Feature", "properties": { "種別": "認可外保育所", "名称": "村上学園光英幼稚学園", "定員": null, "住所": "札幌市東区北38条東20丁目1-3", "区": "札幌市東区", "緯度": 43.109834, "経度": 141.375096 }, "geometry": { "type": "Point", "coordinates": [ 141.375096, 43.109834 ] } },
{ "type": "Feature", "properties": { "種別": "認可外保育所", "名称": "さくら保育園", "定員": null, "住所": "札幌市東区北41条東15丁目3-18", "区": "札幌市東区", "緯度": 43.111996, "経度": 141.367049 }, "geometry": { "type": "Point", "coordinates": [ 141.367049, 43.111996 ] } },
{ "type": "Feature", "properties": { "種別": "認可外保育所", "名称": "保育所ちびっこランドイオン苗穂園", "定員": null, "住所": "札幌市東区東苗穂2条3丁目1-1", "区": "札幌市東区", "緯度": 43.080001, "経度": 141.403742 }, "geometry": { "type": "Point", "coordinates": [ 141.403742, 43.080001 ] } },
{ "type": "Feature", "properties": { "種別": "認可外保育所", "名称": "りとるKid'sクラブ栄町ルーム", "定員": null, "住所": "札幌市東区北43条東15丁目3-16", "区": "札幌市東区", "緯度": 43.115285, "経度": 141.366191 }, "geometry": { "type": "Point", "coordinates": [ 141.366191, 43.115285 ] } },
{ "type": "Feature", "properties": { "種別": "認可外保育所", "名称": "ピッコロ子ども倶楽部第一東区園", "定員": null, "住所": "札幌市東区北21条東20丁目3-20", "区": "札幌市東区", "緯度": 43.091065, "経度": 141.381876 }, "geometry": { "type": "Point", "coordinates": [ 141.381876, 43.091065 ] } },
{ "type": "Feature", "properties": { "種別": "認可外保育所", "名称": "チャイルドルーム栄町園", "定員": null, "住所": "札幌市東区北43条東15丁目3-30", "区": "札幌市東区", "緯度": 43.114393, "経度": 141.36647 }, "geometry": { "type": "Point", "coordinates": [ 141.36647, 43.114393 ] } },
{ "type": "Feature", "properties": { "種別": "認可外保育所", "名称": "託児ルーム・キンダー栄町園", "定員": null, "住所": "札幌市東区北41条東7丁目2-10", "区": "札幌市東区", "緯度": 43.110649, "経度": 141.355333 }, "geometry": { "type": "Point", "coordinates": [ 141.355333, 43.110649 ] } },
{ "type": "Feature", "properties": { "種別": "認可外保育所", "名称": "キッズルーム虹っこ", "定員": null, "住所": "札幌市東区北30条東1丁目1-28", "区": "札幌市東区", "緯度": 43.098116, "経度": 141.347716 }, "geometry": { "type": "Point", "coordinates": [ 141.347716, 43.098116 ] } },
{ "type": "Feature", "properties": { "種別": "認可外保育所", "名称": "札幌ごま保育園", "定員": null, "住所": "札幌市東区北13条東13丁目2-40", "区": "札幌市東区", "緯度": 43.079358, "経度": 141.372349 }, "geometry": { "type": "Point", "coordinates": [ 141.372349, 43.079358 ] } },
{ "type": "Feature", "properties": { "種別": "認定こども園", "名称": "認定こども園かすたねっと", "定員": 60, "住所": "札幌市東区北42条東15丁目1番23号山下ﾋﾞﾙ3F", "区": "札幌市東区", "緯度": 43.113514, "経度": 141.366695 }, "geometry": { "type": "Point", "coordinates": [ 141.366695, 43.113514 ] } },
{ "type": "Feature", "properties": { "種別": "認可保育所", "名称": "まこまないみどりまち乳児保育園", "定員": 30, "住所": "札幌市南区真駒内緑町3丁目3番1号", "区": "札幌市南区", "緯度": 42.993425, "経度": 141.355732 }, "geometry": { "type": "Point", "coordinates": [ 141.355732, 42.993425 ] } },
{ "type": "Feature", "properties": { "種別": "認可保育所", "名称": "定山渓保育所", "定員": 45, "住所": "札幌市南区定山渓温泉東3丁目256番地", "区": "札幌市南区", "緯度": 42.964034, "経度": 141.165361 }, "geometry": { "type": "Point", "coordinates": [ 141.165361, 42.964034 ] } },
{ "type": "Feature", "properties": { "種別": "認可保育所", "名称": "遊・Ｗｉｎｇ", "定員": 60, "住所": "札幌市南区真駒内曙町3丁目4番1号", "区": "札幌市南区", "緯度": 43.000351, "経度": 141.352549 }, "geometry": { "type": "Point", "coordinates": [ 141.352549, 43.000351 ] } },
{ "type": "Feature", "properties": { "種別": "認可保育所", "名称": "川沿保育園", "定員": 60, "住所": "札幌市南区川沿1条1丁目3番82号", "区": "札幌市南区", "緯度": 43.001534, "経度": 141.337514 }, "geometry": { "type": "Point", "coordinates": [ 141.337514, 43.001534 ] } },
{ "type": "Feature", "properties": { "種別": "認可保育所", "名称": "ルンビニー保育園", "定員": 60, "住所": "札幌市南区川沿9条2丁目1番18号", "区": "札幌市南区", "緯度": 42.985366, "経度": 141.33452 }, "geometry": { "type": "Point", "coordinates": [ 141.33452, 42.985366 ] } },
{ "type": "Feature", "properties": { "種別": "認可保育所", "名称": "くまの子保育園", "定員": 60, "住所": "札幌市南区南沢2条3丁目7番1号", "区": "札幌市南区", "緯度": 42.982333, "経度": 141.319649 }, "geometry": { "type": "Point", "coordinates": [ 141.319649, 42.982333 ] } },
{ "type": "Feature", "properties": { "種別": "認可保育所", "名称": "藤ヶ丘保育園", "定員": 60, "住所": "札幌市南区藤野4条5丁目20番10号", "区": "札幌市南区", "緯度": 42.95726, "経度": 141.29741 }, "geometry": { "type": "Point", "coordinates": [ 141.29741, 42.95726 ] } },
{ "type": "Feature", "properties": { "種別": "認可保育所", "名称": "まこまないみどりまち保育園", "定員": 120, "住所": "札幌市南区真駒内緑町3丁目3番2号", "区": "札幌市南区", "緯度": 42.993119, "経度": 141.355844 }, "geometry": { "type": "Point", "coordinates": [ 141.355844, 42.993119 ] } },
{ "type": "Feature", "properties": { "種別": "認可保育所", "名称": "札幌石山保育園", "定員": 120, "住所": "札幌市南区石山1条4丁目8番26号", "区": "札幌市南区", "緯度": 42.965205, "経度": 141.327597 }, "geometry": { "type": "Point", "coordinates": [ 141.327597, 42.965205 ] } },
{ "type": "Feature", "properties": { "種別": "認可保育所", "名称": "澄川ひろのぶ保育園", "定員": 120, "住所": "札幌市南区澄川2条1丁目3番1号", "区": "札幌市南区", "緯度": 43.019034, "経度": 141.362369 }, "geometry": { "type": "Point", "coordinates": [ 141.362369, 43.019034 ] } },
{ "type": "Feature", "properties": { "種別": "認可保育所", "名称": "もいわ光華保育園", "定員": 120, "住所": "札幌市南区南30条西8丁目8番5号", "区": "札幌市南区", "緯度": 43.019811, "経度": 141.349982 }, "geometry": { "type": "Point", "coordinates": [ 141.349982, 43.019811 ] } },
{ "type": "Feature", "properties": { "種別": "認可保育所", "名称": "澄川保育所", "定員": 120, "住所": "札幌市南区澄川5条5丁目5番10号", "区": "札幌市南区", "緯度": 43.009729, "経度": 141.369425 }, "geometry": { "type": "Point", "coordinates": [ 141.369425, 43.009729 ] } },
{ "type": "Feature", "properties": { "種別": "認可保育所", "名称": "もいわ中央保育園", "定員": 120, "住所": "札幌市南区川沿6条3丁目1番14号", "区": "札幌市南区", "緯度": 42.991674, "経度": 141.331429 }, "geometry": { "type": "Point", "coordinates": [ 141.331429, 42.991674 ] } },
{ "type": "Feature", "properties": { "種別": "認可保育所", "名称": "真駒内保育園", "定員": 120, "住所": "札幌市南区真駒内南町1丁目7番4号", "区": "札幌市南区", "緯度": 42.984176, "経度": 141.352011 }, "geometry": { "type": "Point", "coordinates": [ 141.352011, 42.984176 ] } },
{ "type": "Feature", "properties": { "種別": "幼稚園", "名称": "北海道文教大学短期大学部附属", "定員": 80, "住所": "札幌市南区石山531番地", "区": "札幌市南区", "緯度": 42.957011, "経度": 141.313876 }, "geometry": { "type": "Point", "coordinates": [ 141.313876, 42.957011 ] } },
{ "type": "Feature", "properties": { "種別": "幼稚園", "名称": "藤ケ丘", "定員": 80, "住所": "札幌市南区藤野4条5丁目20番1号", "区": "札幌市南区", "緯度": 42.957177, "経度": 141.297738 }, "geometry": { "type": "Point", "coordinates": [ 141.297738, 42.957177 ] } },
{ "type": "Feature", "properties": { "種別": "幼稚園", "名称": "真駒内聖母", "定員": 90, "住所": "札幌市南区真駒内上町4丁目8-2", "区": "札幌市南区", "緯度": 42.996313, "経度": 141.354816 }, "geometry": { "type": "Point", "coordinates": [ 141.354816, 42.996313 ] } },
{ "type": "Feature", "properties": { "種別": "幼稚園", "名称": "札幌みすまい", "定員": 100, "住所": "札幌市南区簾舞2条4丁目3番15号", "区": "札幌市南区", "緯度": 42.963092, "経度": 141.264991 }, "geometry": { "type": "Point", "coordinates": [ 141.264991, 42.963092 ] } },
{ "type": "Feature", "properties": { "種別": "幼稚園", "名称": "札幌わかくさ", "定員": 105, "住所": "札幌市南区南34条西10丁目3番13号", "区": "札幌市南区", "緯度": 43.012645, "経度": 141.348371 }, "geometry": { "type": "Point", "coordinates": [ 141.348371, 43.012645 ] } },
{ "type": "Feature", "properties": { "種別": "幼稚園", "名称": "よい子の", "定員": 120, "住所": "札幌市南区藤野1012-51", "区": "札幌市南区", "緯度": 42.955677, "経度": 141.27724 }, "geometry": { "type": "Point", "coordinates": [ 141.27724, 42.955677 ] } },
{ "type": "Feature", "properties": { "種別": "幼稚園", "名称": "もなみ", "定員": 120, "住所": "札幌市南区川沿9条2丁目1番18号", "区": "札幌市南区", "緯度": 42.985366, "経度": 141.33452 }, "geometry": { "type": "Point", "coordinates": [ 141.33452, 42.985366 ] } },
{ "type": "Feature", "properties": { "種別": "幼稚園", "名称": "南の沢", "定員": 120, "住所": "札幌市南区南沢4条2丁目6-24", "区": "札幌市南区", "緯度": 42.98772, "経度": 141.31675 }, "geometry": { "type": "Point", "coordinates": [ 141.31675, 42.98772 ] } },
{ "type": "Feature", "properties": { "種別": "幼稚園", "名称": "札幌トモエ", "定員": 120, "住所": "札幌市南区北の沢1963番地", "区": "札幌市南区", "緯度": 43.014977, "経度": 141.299402 }, "geometry": { "type": "Point", "coordinates": [ 141.299402, 43.014977 ] } },
{ "type": "Feature", "properties": { "種別": "幼稚園", "名称": "まこまない明星", "定員": 125, "住所": "札幌市南区真駒内泉町2丁目1-6", "区": "札幌市南区", "緯度": 42.987731, "経度": 141.353844 }, "geometry": { "type": "Point", "coordinates": [ 141.353844, 42.987731 ] } },
{ "type": "Feature", "properties": { "種別": "幼稚園", "名称": "札幌梅香", "定員": 150, "住所": "札幌市南区藤野2条7丁目14番1号", "区": "札幌市南区", "緯度": 42.962982, "経度": 141.292905 }, "geometry": { "type": "Point", "coordinates": [ 141.292905, 42.962982 ] } },
{ "type": "Feature", "properties": { "種別": "幼稚園", "名称": "いしやま中央", "定員": 160, "住所": "札幌市南区石山1132番地1", "区": "札幌市南区", "緯度": 42.954096, "経度": 141.339096 }, "geometry": { "type": "Point", "coordinates": [ 141.339096, 42.954096 ] } },
{ "type": "Feature", "properties": { "種別": "幼稚園", "名称": "ときわみなみの", "定員": 160, "住所": "札幌市南区真駒内380番18", "区": "札幌市南区", "緯度": 42.930404, "経度": 141.344792 }, "geometry": { "type": "Point", "coordinates": [ 141.344792, 42.930404 ] } },
{ "type": "Feature", "properties": { "種別": "幼稚園", "名称": "光塩学園女子短期大学附属", "定員": 200, "住所": "札幌市南区真駒内上町3丁目", "区": "札幌市南区", "緯度": 42.997454, "経度": 141.353239 }, "geometry": { "type": "Point", "coordinates": [ 141.353239, 42.997454 ] } },
{ "type": "Feature", "properties": { "種別": "幼稚園", "名称": "第２もなみ", "定員": 240, "住所": "札幌市南区川沿2条3丁目8番25", "区": "札幌市南区", "緯度": 42.99959, "経度": 141.32979 }, "geometry": { "type": "Point", "coordinates": [ 141.32979, 42.99959 ] } },
{ "type": "Feature", "properties": { "種別": "幼稚園", "名称": "真駒内", "定員": 280, "住所": "札幌市南区真駒内曙町3丁目4-1", "区": "札幌市南区", "緯度": 43.00023, "経度": 141.35251 }, "geometry": { "type": "Point", "coordinates": [ 141.35251, 43.00023 ] } },
{ "type": "Feature", "properties": { "種別": "幼稚園", "名称": "澄川", "定員": 320, "住所": "札幌市南区澄川3条3丁目3-11", "区": "札幌市南区", "緯度": 43.01534, "経度": 141.365286 }, "geometry": { "type": "Point", "coordinates": [ 141.365286, 43.01534 ] } },
{ "type": "Feature", "properties": { "種別": "認可保育所", "名称": "札幌市澄川乳児保育園", "定員": 30, "住所": "札幌市南区澄川2条5丁目7番1号", "区": "札幌市南区", "緯度": 43.011062, "経度": 141.361786 }, "geometry": { "type": "Point", "coordinates": [ 141.361786, 43.011062 ] } },
{ "type": "Feature", "properties": { "種別": "幼稚園", "名称": "すみかわみなみ幼稚園", "定員": null, "住所": "札幌市南区澄川6条11丁目2-10", "区": "札幌市南区", "緯度": 42.999029, "経度": 141.373422 }, "geometry": { "type": "Point", "coordinates": [ 141.373422, 42.999029 ] } },
{ "type": "Feature", "properties": { "種別": "幼稚園", "名称": "もいわ幼稚園", "定員": 90, "住所": "札幌市南区川沿18条2丁目1-13", "区": "札幌市南区", "緯度": 42.97291, "経度": 141.333232 }, "geometry": { "type": "Point", "coordinates": [ 141.333232, 42.97291 ] } },
{ "type": "Feature", "properties": { "種別": "認可外保育所", "名称": "保育所ちびっこランド澄川駅前園", "定員": null, "住所": "札幌市南区澄川4条2丁目10-1", "区": "札幌市南区", "緯度": 43.016101, "経度": 141.368401 }, "geometry": { "type": "Point", "coordinates": [ 141.368401, 43.016101 ] } },
{ "type": "Feature", "properties": { "種別": "認可外保育所", "名称": "会員制幼児総合教室川沿プレスクール", "定員": null, "住所": "札幌市南区川沿6条2丁目3-23", "区": "札幌市南区", "緯度": 42.990429, "経度": 141.332824 }, "geometry": { "type": "Point", "coordinates": [ 141.332824, 42.990429 ] } },
{ "type": "Feature", "properties": { "種別": "認可外保育所", "名称": "ピッコロ子ども倶楽部真駒内園", "定員": null, "住所": "札幌市南区真駒内緑町1丁目3-8", "区": "札幌市南区", "緯度": 42.992783, "経度": 141.349647 }, "geometry": { "type": "Point", "coordinates": [ 141.349647, 42.992783 ] } },
{ "type": "Feature", "properties": { "種別": "認可外保育所", "名称": "りとるKid'sクラブ澄川ルーム", "定員": null, "住所": "札幌市南区澄川1条3丁目2-16", "区": "札幌市南区", "緯度": 43.015819, "経度": 141.36102 }, "geometry": { "type": "Point", "coordinates": [ 141.36102, 43.015819 ] } },
{ "type": "Feature", "properties": { "種別": "認可保育所", "名称": "双葉保育園", "定員": 60, "住所": "札幌市白石区栄通15丁目15番18号", "区": "札幌市白石区", "緯度": 43.031923, "経度": 141.421308 }, "geometry": { "type": "Point", "coordinates": [ 141.421308, 43.031923 ] } },
{ "type": "Feature", "properties": { "種別": "認可保育所", "名称": "こぶし保育園", "定員": 60, "住所": "札幌市白石区川北2条1丁目8番16号", "区": "札幌市白石区", "緯度": 43.057661, "経度": 141.433567 }, "geometry": { "type": "Point", "coordinates": [ 141.433567, 43.057661 ] } },
{ "type": "Feature", "properties": { "種別": "認可保育所", "名称": "東白石雪ん子保育園", "定員": 80, "住所": "札幌市白石区本通14丁目南1番5号", "区": "札幌市白石区", "緯度": 43.037922, "経度": 141.425418 }, "geometry": { "type": "Point", "coordinates": [ 141.425418, 43.037922 ] } },
{ "type": "Feature", "properties": { "種別": "認可保育所", "名称": "まこと保育所", "定員": 80, "住所": "札幌市白石区菊水8条3丁目3番18号", "区": "札幌市白石区", "緯度": 43.059169, "経度": 141.383532 }, "geometry": { "type": "Point", "coordinates": [ 141.383532, 43.059169 ] } },
{ "type": "Feature", "properties": { "種別": "認可保育所", "名称": "北都保育園", "定員": 90, "住所": "札幌市白石区北郷4条11丁目20番7号", "区": "札幌市白石区", "緯度": 43.053319, "経度": 141.43431 }, "geometry": { "type": "Point", "coordinates": [ 141.43431, 43.053319 ] } },
{ "type": "Feature", "properties": { "種別": "認可保育所", "名称": "東川下ポッポ保育園", "定員": 90, "住所": "札幌市白石区川下3条5丁目3番28号", "区": "札幌市白石区", "緯度": 43.050588, "経度": 141.447304 }, "geometry": { "type": "Point", "coordinates": [ 141.447304, 43.050588 ] } },
{ "type": "Feature", "properties": { "種別": "認可保育所", "名称": "救世軍菊水上町保育園", "定員": 90, "住所": "札幌市白石区菊水上町3条2丁目52番地", "区": "札幌市白石区", "緯度": 43.064585, "経度": 141.390253 }, "geometry": { "type": "Point", "coordinates": [ 141.390253, 43.064585 ] } },
{ "type": "Feature", "properties": { "種別": "認可保育所", "名称": "白石うさこ保育園", "定員": 90, "住所": "札幌市白石区平和通17丁目北1番10号", "区": "札幌市白石区", "緯度": 43.040569, "経度": 141.436731 }, "geometry": { "type": "Point", "coordinates": [ 141.436731, 43.040569 ] } },
{ "type": "Feature", "properties": { "種別": "認可保育所", "名称": "北郷すずらん保育園", "定員": 90, "住所": "札幌市白石区北郷7条3丁目12番25号", "区": "札幌市白石区", "緯度": 43.065988, "経度": 141.419025 }, "geometry": { "type": "Point", "coordinates": [ 141.419025, 43.065988 ] } },
{ "type": "Feature", "properties": { "種別": "認可保育所", "名称": "友愛北白石保育園", "定員": 90, "住所": "札幌市白石区米里2条4丁目2番16号", "区": "札幌市白石区", "緯度": 43.070118, "経度": 141.424234 }, "geometry": { "type": "Point", "coordinates": [ 141.424234, 43.070118 ] } },
{ "type": "Feature", "properties": { "種別": "認可保育所", "名称": "菊水すずらん保育園", "定員": 110, "住所": "札幌市白石区菊水1条3丁目3番46号", "区": "札幌市白石区", "緯度": 43.05477, "経度": 141.373019 }, "geometry": { "type": "Point", "coordinates": [ 141.373019, 43.05477 ] } },
{ "type": "Feature", "properties": { "種別": "認可保育所", "名称": "札幌愛隣舘第二保育園", "定員": 120, "住所": "札幌市白石区平和通8丁目北3番47号", "区": "札幌市白石区", "緯度": 43.047204, "経度": 141.42137 }, "geometry": { "type": "Point", "coordinates": [ 141.42137, 43.047204 ] } },
{ "type": "Feature", "properties": { "種別": "認可保育所", "名称": "柏葉保育園", "定員": 120, "住所": "札幌市白石区南郷通15丁目北3番12号", "区": "札幌市白石区", "緯度": 43.035867, "経度": 141.42939 }, "geometry": { "type": "Point", "coordinates": [ 141.42939, 43.035867 ] } },
{ "type": "Feature", "properties": { "種別": "認可保育所", "名称": "北の星東札幌保育園", "定員": 120, "住所": "札幌市白石区東札幌2条6丁目10番22号", "区": "札幌市白石区", "緯度": 43.045038, "経度": 141.393477 }, "geometry": { "type": "Point", "coordinates": [ 141.393477, 43.045038 ] } },
{ "type": "Feature", "properties": { "種別": "認可保育所", "名称": "菊水元町保育園", "定員": 120, "住所": "札幌市白石区菊水元町5条2丁目6番18号", "区": "札幌市白石区", "緯度": 43.07044, "経度": 141.407308 }, "geometry": { "type": "Point", "coordinates": [ 141.407308, 43.07044 ] } },
{ "type": "Feature", "properties": { "種別": "認可保育所", "名称": "南郷保育園", "定員": 120, "住所": "札幌市白石区栄通6丁目19番7号", "区": "札幌市白石区", "緯度": 43.035866, "経度": 141.412586 }, "geometry": { "type": "Point", "coordinates": [ 141.412586, 43.035866 ] } },
{ "type": "Feature", "properties": { "種別": "認可保育所", "名称": "北の星白石保育園", "定員": 120, "住所": "札幌市白石区本通1丁目南2番34号", "区": "札幌市白石区", "緯度": 43.051226, "経度": 141.404197 }, "geometry": { "type": "Point", "coordinates": [ 141.404197, 43.051226 ] } },
{ "type": "Feature", "properties": { "種別": "認可保育所", "名称": "北郷ピノキオ保育園", "定員": 150, "住所": "札幌市白石区北郷2条6丁目5番12号", "区": "札幌市白石区", "緯度": 43.054585, "経度": 141.421008 }, "geometry": { "type": "Point", "coordinates": [ 141.421008, 43.054585 ] } },
{ "type": "Feature", "properties": { "種別": "認可保育所", "名称": "白石興正保育園", "定員": 150, "住所": "札幌市白石区中央3条5丁目2番37号", "区": "札幌市白石区", "緯度": 43.057745, "経度": 141.40256 }, "geometry": { "type": "Point", "coordinates": [ 141.40256, 43.057745 ] } },
{ "type": "Feature", "properties": { "種別": "認可保育所", "名称": "北白石保育園", "定員": 150, "住所": "札幌市白石区北郷2条3丁目6番1号", "区": "札幌市白石区", "緯度": 43.060058, "経度": 141.410051 }, "geometry": { "type": "Point", "coordinates": [ 141.410051, 43.060058 ] } },
{ "type": "Feature", "properties": { "種別": "認可保育所", "名称": "大谷地たかだ保育園", "定員": 150, "住所": "札幌市白石区栄通19丁目4番30号", "区": "札幌市白石区", "緯度": 43.027674, "経度": 141.435251 }, "geometry": { "type": "Point", "coordinates": [ 141.435251, 43.027674 ] } },
{ "type": "Feature", "properties": { "種別": "認可外保育所", "名称": "学校法人大藤学園大藤子ども園", "定員": null, "住所": "札幌市白石区南郷通18丁目北6-4", "区": "札幌市白石区", "緯度": 43.031365, "経度": 141.43522 }, "geometry": { "type": "Point", "coordinates": [ 141.43522, 43.031365 ] } },
{ "type": "Feature", "properties": { "種別": "認可外保育所", "名称": "コープさっぽろルーシー「トドックルーム」", "定員": null, "住所": "札幌市白石区栄通18丁目5-35", "区": "札幌市白石区", "緯度": 43.028149, "経度": 141.434126 }, "geometry": { "type": "Point", "coordinates": [ 141.434126, 43.028149 ] } },
{ "type": "Feature", "properties": { "種別": "幼稚園", "名称": "北都", "定員": null, "住所": "札幌市白石区川下749番地55", "区": "札幌市白石区", "緯度": 43.056893, "経度": 141.440916 }, "geometry": { "type": "Point", "coordinates": [ 141.440916, 43.056893 ] } },
{ "type": "Feature", "properties": { "種別": "幼稚園", "名称": "北郷あゆみ", "定員": 105, "住所": "札幌市白石区北郷3条3丁目8-15", "区": "札幌市白石区", "緯度": 43.060947, "経度": 141.413474 }, "geometry": { "type": "Point", "coordinates": [ 141.413474, 43.060947 ] } },
{ "type": "Feature", "properties": { "種別": "幼稚園", "名称": "菊水いちい", "定員": 200, "住所": "札幌市白石区菊水元町1条1丁目4-18", "区": "札幌市白石区", "緯度": 43.067557, "経度": 141.395419 }, "geometry": { "type": "Point", "coordinates": [ 141.395419, 43.067557 ] } },
{ "type": "Feature", "properties": { "種別": "幼稚園", "名称": "あさひ", "定員": 200, "住所": "札幌市白石区平和通10丁目北7番56", "区": "札幌市白石区", "緯度": 43.046558, "経度": 141.427079 }, "geometry": { "type": "Point", "coordinates": [ 141.427079, 43.046558 ] } },
{ "type": "Feature", "properties": { "種別": "幼稚園", "名称": "南郷札幌", "定員": 240, "住所": "札幌市白石区栄通9丁目33番地", "区": "札幌市白石区", "緯度": 43.035755, "経度": 141.412336 }, "geometry": { "type": "Point", "coordinates": [ 141.412336, 43.035755 ] } },
{ "type": "Feature", "properties": { "種別": "幼稚園", "名称": "白石", "定員": 280, "住所": "札幌市白石区平和通1丁目南6-16", "区": "札幌市白石区", "緯度": 43.054298, "経度": 141.406839 }, "geometry": { "type": "Point", "coordinates": [ 141.406839, 43.054298 ] } },
{ "type": "Feature", "properties": { "種別": "幼稚園", "名称": "北郷札幌", "定員": 280, "住所": "札幌市白石区北郷4条5丁目245", "区": "札幌市白石区", "緯度": 43.059503, "経度": 141.421668 }, "geometry": { "type": "Point", "coordinates": [ 141.421668, 43.059503 ] } },
{ "type": "Feature", "properties": { "種別": "幼稚園", "名称": "札幌白樺", "定員": 320, "住所": "札幌市白石区南郷通18丁目北5-5", "区": "札幌市白石区", "緯度": 43.031622, "経度": 141.435479 }, "geometry": { "type": "Point", "coordinates": [ 141.435479, 43.031622 ] } },
{ "type": "Feature", "properties": { "種別": "幼稚園", "名称": "本郷", "定員": 350, "住所": "札幌市白石区本郷通6丁目南4-17", "区": "札幌市白石区", "緯度": 43.042553, "経度": 141.411088 }, "geometry": { "type": "Point", "coordinates": [ 141.411088, 43.042553 ] } },
{ "type": "Feature", "properties": { "種別": "幼稚園", "名称": "幌東", "定員": 360, "住所": "札幌市白石区本郷通3丁目北3番11号", "区": "札幌市白石区", "緯度": 43.047753, "経度": 141.407285 }, "geometry": { "type": "Point", "coordinates": [ 141.407285, 43.047753 ] } },
{ "type": "Feature", "properties": { "種別": "認可保育所", "名称": "札幌市菊水乳児保育園", "定員": 30, "住所": "札幌市白石区菊水5条1丁目8番14号", "区": "札幌市白石区", "緯度": 43.060502, "経度": 141.374672 }, "geometry": { "type": "Point", "coordinates": [ 141.374672, 43.060502 ] } },
{ "type": "Feature", "properties": { "種別": "認可保育所", "名称": "札幌市東札幌保育園", "定員": 90, "住所": "札幌市白石区東札幌3条3丁目5番15号", "区": "札幌市白石区", "緯度": 43.05142, "経度": 141.388143 }, "geometry": { "type": "Point", "coordinates": [ 141.388143, 43.05142 ] } },
{ "type": "Feature", "properties": { "種別": "認可保育所", "名称": "札幌市東白石保育園", "定員": 90, "住所": "札幌市白石区南郷通8丁目北4番1号", "区": "札幌市白石区", "緯度": 43.040588, "経度": 141.413336 }, "geometry": { "type": "Point", "coordinates": [ 141.413336, 43.040588 ] } },
{ "type": "Feature", "properties": { "種別": "認可保育所", "名称": "札幌市青葉保育園", "定員": 100, "住所": "札幌市白石区菊水5条2丁目1番4号", "区": "札幌市白石区", "緯度": 43.059752, "経度": 141.374977 }, "geometry": { "type": "Point", "coordinates": [ 141.374977, 43.059752 ] } },
{ "type": "Feature", "properties": { "種別": "認可保育所", "名称": "白石区保育・子育て支援センター", "定員": 120, "住所": "札幌市白石区本郷通3丁目北1番2号", "区": "札幌市白石区", "緯度": 43.048308, "経度": 141.405574 }, "geometry": { "type": "Point", "coordinates": [ 141.405574, 43.048308 ] } },
{ "type": "Feature", "properties": { "種別": "幼稚園", "名称": "東橋幼稚園", "定員": null, "住所": "札幌市白石区菊水8条2丁目1-1", "区": "札幌市白石区", "緯度": 43.061269, "経度": 141.380203 }, "geometry": { "type": "Point", "coordinates": [ 141.380203, 43.061269 ] } },
{ "type": "Feature", "properties": { "種別": "幼稚園", "名称": "きくすいもとまち幼稚園", "定員": 90, "住所": "札幌市白石区菊水元町6条1丁目5-1", "区": "札幌市白石区", "緯度": 43.073794, "経度": 141.407132 }, "geometry": { "type": "Point", "coordinates": [ 141.407132, 43.073794 ] } },
{ "type": "Feature", "properties": { "種別": "認可外保育所", "名称": "保育所ちびっこランド菊水元町園", "定員": null, "住所": "札幌市白石区菊水元町7条2丁目1-1", "区": "札幌市白石区", "緯度": 43.072634, "経度": 141.40945 }, "geometry": { "type": "Point", "coordinates": [ 141.40945, 43.072634 ] } },
{ "type": "Feature", "properties": { "種別": "認可外保育所", "名称": "保育所ちびっこランド白石駅前園", "定員": null, "住所": "札幌市白石区平和通3丁目北4-20", "区": "札幌市白石区", "緯度": 43.053273, "経度": 141.413012 }, "geometry": { "type": "Point", "coordinates": [ 141.413012, 43.053273 ] } },
{ "type": "Feature", "properties": { "種別": "認可外保育所", "名称": "みゅーず☆ポッケ", "定員": null, "住所": "札幌市白石区東札幌4条3丁目5-8", "区": "札幌市白石区", "緯度": 43.051909, "経度": 141.390545 }, "geometry": { "type": "Point", "coordinates": [ 141.390545, 43.051909 ] } },
{ "type": "Feature", "properties": { "種別": "認可外保育所", "名称": "米里保育園", "定員": null, "住所": "札幌市白石区米里4条1丁目5-9", "区": "札幌市白石区", "緯度": 43.08395, "経度": 141.425414 }, "geometry": { "type": "Point", "coordinates": [ 141.425414, 43.08395 ] } },
{ "type": "Feature", "properties": { "種別": "認可外保育所", "名称": "保育所ちびっこランド菊水上町園", "定員": null, "住所": "札幌市白石区菊水上町1条1丁目100-40", "区": "札幌市白石区", "緯度": 43.063809, "経度": 141.382906 }, "geometry": { "type": "Point", "coordinates": [ 141.382906, 43.063809 ] } },
{ "type": "Feature", "properties": { "種別": "認可外保育所", "名称": "りとるKid'sクラブ白石ルーム", "定員": null, "住所": "札幌市白石区南郷通7丁目南2-23", "区": "札幌市白石区", "緯度": 43.038438, "経度": 141.410437 }, "geometry": { "type": "Point", "coordinates": [ 141.410437, 43.038438 ] } },
{ "type": "Feature", "properties": { "種別": "認可外保育所", "名称": "ピッコロ子ども倶楽部東札幌園", "定員": null, "住所": "札幌市白石区東札幌1条2丁目3-10", "区": "札幌市白石区", "緯度": 43.049714, "経度": 141.382735 }, "geometry": { "type": "Point", "coordinates": [ 141.382735, 43.049714 ] } },
{ "type": "Feature", "properties": { "種別": "認可外保育所", "名称": "託児保育園ぴょんぴょんクラブ", "定員": null, "住所": "札幌市白石区北郷4条2丁目8-10", "区": "札幌市白石区", "緯度": 43.064969, "経度": 141.411273 }, "geometry": { "type": "Point", "coordinates": [ 141.411273, 43.064969 ] } },
{ "type": "Feature", "properties": { "種別": "認可外保育所", "名称": "キッズルーム白石店", "定員": null, "住所": "札幌市白石区平和通16丁目北4-25", "区": "札幌市白石区", "緯度": 43.042249, "経度": 141.436486 }, "geometry": { "type": "Point", "coordinates": [ 141.436486, 43.042249 ] } },
{ "type": "Feature", "properties": { "種別": "認可保育所", "名称": "まなび保育園", "定員": 60, "住所": "札幌市豊平区西岡3条5丁目1番1号", "区": "札幌市豊平区", "緯度": 43.015868, "経度": 141.385617 }, "geometry": { "type": "Point", "coordinates": [ 141.385617, 43.015868 ] } },
{ "type": "Feature", "properties": { "種別": "認可保育所", "名称": "子どもの家保育園", "定員": 60, "住所": "札幌市豊平区平岸4条9丁目4番9号", "区": "札幌市豊平区", "緯度": 43.032769, "経度": 141.376552 }, "geometry": { "type": "Point", "coordinates": [ 141.376552, 43.032769 ] } },
{ "type": "Feature", "properties": { "種別": "認可保育所", "名称": "中の島興正保育園", "定員": 60, "住所": "札幌市豊平区中の島2条1丁目3番18号", "区": "札幌市豊平区", "緯度": 43.037749, "経度": 141.361816 }, "geometry": { "type": "Point", "coordinates": [ 141.361816, 43.037749 ] } },
{ "type": "Feature", "properties": { "種別": "認可保育所", "名称": "みのり保育所", "定員": 90, "住所": "札幌市豊平区月寒東2条11丁目14番21号", "区": "札幌市豊平区", "緯度": 43.025839, "経度": 141.40481 }, "geometry": { "type": "Point", "coordinates": [ 141.40481, 43.025839 ] } },
{ "type": "Feature", "properties": { "種別": "認可保育所", "名称": "札幌第1福ちゃん保育園", "定員": 90, "住所": "札幌市豊平区豊平1条13丁目1番20号", "区": "札幌市豊平区", "緯度": 43.046503, "経度": 141.383505 }, "geometry": { "type": "Point", "coordinates": [ 141.383505, 43.046503 ] } },
{ "type": "Feature", "properties": { "種別": "認可保育所", "名称": "西岡保育園", "定員": 90, "住所": "札幌市豊平区月寒西2条10丁目2番78号", "区": "札幌市豊平区", "緯度": 43.025256, "経度": 141.392255 }, "geometry": { "type": "Point", "coordinates": [ 141.392255, 43.025256 ] } },
{ "type": "Feature", "properties": { "種別": "認可保育所", "名称": "羊丘藤保育園", "定員": 90, "住所": "札幌市豊平区福住1条3丁目9番30号", "区": "札幌市豊平区", "緯度": 43.018007, "経度": 141.397755 }, "geometry": { "type": "Point", "coordinates": [ 141.397755, 43.018007 ] } },
{ "type": "Feature", "properties": { "種別": "認可保育所", "名称": "にれ第2保育園", "定員": 90, "住所": "札幌市豊平区月寒東5条16丁目8番14号", "区": "札幌市豊平区", "緯度": 43.027264, "経度": 141.425976 }, "geometry": { "type": "Point", "coordinates": [ 141.425976, 43.027264 ] } },
{ "type": "Feature", "properties": { "種別": "認可保育所", "名称": "福住保育園", "定員": 90, "住所": "札幌市豊平区福住2条9丁目3番8号", "区": "札幌市豊平区", "緯度": 43.005952, "経度": 141.391784 }, "geometry": { "type": "Point", "coordinates": [ 141.391784, 43.005952 ] } },
{ "type": "Feature", "properties": { "種別": "認可保育所", "名称": "光の子保育園", "定員": 90, "住所": "札幌市豊平区月寒東4条9丁目1番11号", "区": "札幌市豊平区", "緯度": 43.032256, "経度": 141.40842 }, "geometry": { "type": "Point", "coordinates": [ 141.40842, 43.032256 ] } },
{ "type": "Feature", "properties": { "種別": "認可保育所", "名称": "札幌保育園", "定員": 120, "住所": "札幌市豊平区豊平6条3丁目6番35号", "区": "札幌市豊平区", "緯度": 43.050752, "経度": 141.366228 }, "geometry": { "type": "Point", "coordinates": [ 141.366228, 43.050752 ] } },
{ "type": "Feature", "properties": { "種別": "認可保育所", "名称": "札幌愛隣舘保育園", "定員": 120, "住所": "札幌市豊平区豊平4条3丁目3番28号", "区": "札幌市豊平区", "緯度": 43.050586, "経度": 141.369062 }, "geometry": { "type": "Point", "coordinates": [ 141.369062, 43.050586 ] } },
{ "type": "Feature", "properties": { "種別": "認可保育所", "名称": "中の島保育所", "定員": 120, "住所": "札幌市豊平区中の島2条9丁目5番1号", "区": "札幌市豊平区", "緯度": 43.0227, "経度": 141.357731 }, "geometry": { "type": "Point", "coordinates": [ 141.357731, 43.0227 ] } },
{ "type": "Feature", "properties": { "種別": "認可保育所", "名称": "札幌愛隣舘東山保育園", "定員": 120, "住所": "札幌市豊平区平岸4条11丁目3番14号", "区": "札幌市豊平区", "緯度": 43.029088, "経度": 141.373312 }, "geometry": { "type": "Point", "coordinates": [ 141.373312, 43.029088 ] } },
{ "type": "Feature", "properties": { "種別": "認可保育所", "名称": "東月寒保育園", "定員": 120, "住所": "札幌市豊平区月寒東1条19丁目1番16号", "区": "札幌市豊平区", "緯度": 43.013841, "経度": 141.419754 }, "geometry": { "type": "Point", "coordinates": [ 141.419754, 43.013841 ] } },
{ "type": "Feature", "properties": { "種別": "認可保育所", "名称": "札幌愛隣舘りんご保育園", "定員": 120, "住所": "札幌市豊平区平岸4条1丁目1番22号", "区": "札幌市豊平区", "緯度": 43.042198, "経度": 141.372756 }, "geometry": { "type": "Point", "coordinates": [ 141.372756, 43.042198 ] } },
{ "type": "Feature", "properties": { "種別": "認可保育所", "名称": "東月寒にれ保育園", "定員": 120, "住所": "札幌市豊平区月寒東3条16丁目2番36号", "区": "札幌市豊平区", "緯度": 43.022951, "経度": 141.416392 }, "geometry": { "type": "Point", "coordinates": [ 141.416392, 43.022951 ] } },
{ "type": "Feature", "properties": { "種別": "認可保育所", "名称": "西岡高台保育園", "定員": 120, "住所": "札幌市豊平区西岡4条12丁目4番1号", "区": "札幌市豊平区", "緯度": 42.99537, "経度": 141.380508 }, "geometry": { "type": "Point", "coordinates": [ 141.380508, 42.99537 ] } },
{ "type": "Feature", "properties": { "種別": "認可保育所", "名称": "平岸興正保育園", "定員": 120, "住所": "札幌市豊平区平岸1条11丁目1番7号", "区": "札幌市豊平区", "緯度": 43.029933, "経度": 141.363485 }, "geometry": { "type": "Point", "coordinates": [ 141.363485, 43.029933 ] } },
{ "type": "Feature", "properties": { "種別": "認可外保育所", "名称": "札幌キリスト教会付属オリーブ幼児園", "定員": null, "住所": "札幌市豊平区月寒東2条19丁目11-5", "区": "札幌市豊平区", "緯度": 43.015505, "経度": 141.425672 }, "geometry": { "type": "Point", "coordinates": [ 141.425672, 43.015505 ] } },
{ "type": "Feature", "properties": { "種別": "幼稚園", "名称": "黎明", "定員": 80, "住所": "札幌市豊平区月寒東1条2丁目10-9", "区": "札幌市豊平区", "緯度": 43.037394, "経度": 141.396004 }, "geometry": { "type": "Point", "coordinates": [ 141.396004, 43.037394 ] } },
{ "type": "Feature", "properties": { "種別": "幼稚園", "名称": "美晴", "定員": 120, "住所": "札幌市豊平区月寒西2条7丁目2-16", "区": "札幌市豊平区", "緯度": 43.029775, "経度": 141.392139 }, "geometry": { "type": "Point", "coordinates": [ 141.392139, 43.029775 ] } },
{ "type": "Feature", "properties": { "種別": "幼稚園", "名称": "まなび", "定員": 165, "住所": "札幌市豊平区西岡3条5丁目1番1", "区": "札幌市豊平区", "緯度": 43.015868, "経度": 141.385617 }, "geometry": { "type": "Point", "coordinates": [ 141.385617, 43.015868 ] } },
{ "type": "Feature", "properties": { "種別": "幼稚園", "名称": "幌南学園", "定員": 200, "住所": "札幌市豊平区月寒西1条3丁目1-16", "区": "札幌市豊平区", "緯度": 43.034727, "経度": 141.390366 }, "geometry": { "type": "Point", "coordinates": [ 141.390366, 43.034727 ] } },
{ "type": "Feature", "properties": { "種別": "幼稚園", "名称": "札幌ゆたか", "定員": 210, "住所": "札幌市豊平区豊平1条4丁目2-19", "区": "札幌市豊平区", "緯度": 43.05328, "経度": 141.37245 }, "geometry": { "type": "Point", "coordinates": [ 141.37245, 43.05328 ] } },
{ "type": "Feature", "properties": { "種別": "幼稚園", "名称": "ふくずみ", "定員": 220, "住所": "札幌市豊平区福住2条6丁目6番12", "区": "札幌市豊平区", "緯度": 43.011369, "経度": 141.395561 }, "geometry": { "type": "Point", "coordinates": [ 141.395561, 43.011369 ] } },
{ "type": "Feature", "properties": { "種別": "幼稚園", "名称": "つきさむ", "定員": 235, "住所": "札幌市豊平区月寒東2条11丁目164-13", "区": "札幌市豊平区", "緯度": 43.026033, "経度": 141.405155 }, "geometry": { "type": "Point", "coordinates": [ 141.405155, 43.026033 ] } },
{ "type": "Feature", "properties": { "種別": "幼稚園", "名称": "札幌白ゆり", "定員": 240, "住所": "札幌市豊平区平岸5条9丁目2-9", "区": "札幌市豊平区", "緯度": 43.032921, "経度": 141.378451 }, "geometry": { "type": "Point", "coordinates": [ 141.378451, 43.032921 ] } },
{ "type": "Feature", "properties": { "種別": "幼稚園", "名称": "西岡ふたば", "定員": 260, "住所": "札幌市豊平区西岡4条10丁目8番1号", "区": "札幌市豊平区", "緯度": 43.000981, "経度": 141.385313 }, "geometry": { "type": "Point", "coordinates": [ 141.385313, 43.000981 ] } },
{ "type": "Feature", "properties": { "種別": "幼稚園", "名称": "札幌若葉", "定員": 270, "住所": "札幌市豊平区月寒東2条18丁目9番11", "区": "札幌市豊平区", "緯度": 43.01673, "経度": 141.421587 }, "geometry": { "type": "Point", "coordinates": [ 141.421587, 43.01673 ] } },
{ "type": "Feature", "properties": { "種別": "幼稚園", "名称": "札幌創価", "定員": 280, "住所": "札幌市豊平区福住2条3丁目10番1", "区": "札幌市豊平区", "緯度": 43.016285, "経度": 141.403505 }, "geometry": { "type": "Point", "coordinates": [ 141.403505, 43.016285 ] } },
{ "type": "Feature", "properties": { "種別": "幼稚園", "名称": "平岸", "定員": 320, "住所": "札幌市豊平区平岸3条12丁目3-9", "区": "札幌市豊平区", "緯度": 43.028727, "経度": 141.371146 }, "geometry": { "type": "Point", "coordinates": [ 141.371146, 43.028727 ] } },
{ "type": "Feature", "properties": { "種別": "幼稚園", "名称": "札幌第一", "定員": 350, "住所": "札幌市豊平区旭町7丁目3番7号", "区": "札幌市豊平区", "緯度": 43.043559, "経度": 141.369284 }, "geometry": { "type": "Point", "coordinates": [ 141.369284, 43.043559 ] } },
{ "type": "Feature", "properties": { "種別": "幼稚園", "名称": "札幌くりのみ", "定員": 400, "住所": "札幌市豊平区月寒西5条8丁目1-20", "区": "札幌市豊平区", "緯度": 43.025839, "経度": 141.385284 }, "geometry": { "type": "Point", "coordinates": [ 141.385284, 43.025839 ] } },
{ "type": "Feature", "properties": { "種別": "幼稚園", "名称": "なかのしま", "定員": 400, "住所": "札幌市豊平区中の島2条2丁目5-20", "区": "札幌市豊平区", "緯度": 43.035809, "経度": 141.361424 }, "geometry": { "type": "Point", "coordinates": [ 141.361424, 43.035809 ] } },
{ "type": "Feature", "properties": { "種別": "認可保育所", "名称": "札幌市豊園乳児保育園", "定員": 30, "住所": "札幌市豊平区美園5条1丁目2番1号", "区": "札幌市豊平区", "緯度": 43.042754, "経度": 141.380255 }, "geometry": { "type": "Point", "coordinates": [ 141.380255, 43.042754 ] } },
{ "type": "Feature", "properties": { "種別": "認可保育所", "名称": "札幌市豊園保育園", "定員": 90, "住所": "札幌市豊平区美園5条1丁目2番5号", "区": "札幌市豊平区", "緯度": 43.042531, "経度": 141.380589 }, "geometry": { "type": "Point", "coordinates": [ 141.380589, 43.042531 ] } },
{ "type": "Feature", "properties": { "種別": "認可保育所", "名称": "札幌市美園保育園", "定員": 100, "住所": "札幌市豊平区美園5条7丁目7番1号", "区": "札幌市豊平区", "緯度": 43.037504, "経度": 141.388422 }, "geometry": { "type": "Point", "coordinates": [ 141.388422, 43.037504 ] } },
{ "type": "Feature", "properties": { "種別": "認可保育所", "名称": "豊平区保育・子育て支援センター", "定員": 120, "住所": "札幌市豊平区月寒東1条4丁目2番11号", "区": "札幌市豊平区", "緯度": 43.035026, "経度": 141.396967 }, "geometry": { "type": "Point", "coordinates": [ 141.396967, 43.035026 ] } },
{ "type": "Feature", "properties": { "種別": "幼稚園", "名称": "かっこう幼稚園", "定員": 90, "住所": "札幌市豊平区月寒東3条7丁目7-2", "区": "札幌市豊平区", "緯度": 43.032729, "経度": 141.404214 }, "geometry": { "type": "Point", "coordinates": [ 141.404214, 43.032729 ] } },
{ "type": "Feature", "properties": { "種別": "認可外保育所", "名称": "保育所ちびっこランド南郷通園", "定員": null, "住所": "札幌市豊平区月寒東5条18丁目2-29", "区": "札幌市豊平区", "緯度": 43.02713, "経度": 141.4308 }, "geometry": { "type": "Point", "coordinates": [ 141.4308, 43.02713 ] } },
{ "type": "Feature", "properties": { "種別": "認可外保育所", "名称": "保育所ちびっこランド月寒東園", "定員": null, "住所": "札幌市豊平区月寒東1条6丁目6-14", "区": "札幌市豊平区", "緯度": 43.032965, "経度": 141.398957 }, "geometry": { "type": "Point", "coordinates": [ 141.398957, 43.032965 ] } },
{ "type": "Feature", "properties": { "種別": "認可外保育所", "名称": "櫻樹校", "定員": null, "住所": "札幌市豊平区西岡1条8丁目1-7", "区": "札幌市豊平区", "緯度": 43.009935, "経度": 141.376898 }, "geometry": { "type": "Point", "coordinates": [ 141.376898, 43.009935 ] } },
{ "type": "Feature", "properties": { "種別": "認可外保育所", "名称": "あんあん保育園平岸ルーム", "定員": null, "住所": "札幌市豊平区平岸2条9丁目2-1", "区": "札幌市豊平区", "緯度": 43.031851, "経度": 141.368208 }, "geometry": { "type": "Point", "coordinates": [ 141.368208, 43.031851 ] } },
{ "type": "Feature", "properties": { "種別": "認可外保育所", "名称": "STRAWBERRYFIELD", "定員": null, "住所": "札幌市豊平区月寒中央通7丁目2-15", "区": "札幌市豊平区", "緯度": 43.031067, "経度": 141.395416 }, "geometry": { "type": "Point", "coordinates": [ 141.395416, 43.031067 ] } },
{ "type": "Feature", "properties": { "種別": "認可外保育所", "名称": "ひよこ保育園平岸ルーム", "定員": null, "住所": "札幌市豊平区平岸3条7丁目11-15", "区": "札幌市豊平区", "緯度": 43.034549, "経度": 141.372221 }, "geometry": { "type": "Point", "coordinates": [ 141.372221, 43.034549 ] } },
{ "type": "Feature", "properties": { "種別": "認可外保育所", "名称": "乳幼児保育クラブ「ぞうさん」", "定員": null, "住所": "札幌市豊平区平岸5条8丁目1-1", "区": "札幌市豊平区", "緯度": 43.033576, "経度": 141.377306 }, "geometry": { "type": "Point", "coordinates": [ 141.377306, 43.033576 ] } },
{ "type": "Feature", "properties": { "種別": "認可外保育所", "名称": "ピッコロ子ども倶楽部月寒園", "定員": null, "住所": "札幌市豊平区月寒東5条10丁目3-3", "区": "札幌市豊平区", "緯度": 43.034063, "経度": 141.412969 }, "geometry": { "type": "Point", "coordinates": [ 141.412969, 43.034063 ] } },
{ "type": "Feature", "properties": { "種別": "認可外保育所", "名称": "CHILD・ROOMフリーダム・マミー", "定員": null, "住所": "札幌市豊平区月寒西1条9丁目2-8", "区": "札幌市豊平区", "緯度": 43.027255, "経度": 141.394386 }, "geometry": { "type": "Point", "coordinates": [ 141.394386, 43.027255 ] } },
{ "type": "Feature", "properties": { "種別": "認可外保育所", "名称": "保育所ちびっこランド平岸ひまわり園", "定員": null, "住所": "札幌市豊平区平岸3条5丁目4-17-101", "区": "札幌市豊平区", "緯度": 43.036917, "経度": 141.369731 }, "geometry": { "type": "Point", "coordinates": [ 141.369731, 43.036917 ] } },
{ "type": "Feature", "properties": { "種別": "認可外保育所", "名称": "保育所ちびっこランド札幌ドーム前園", "定員": null, "住所": "札幌市豊平区福住3条1丁目5-16", "区": "札幌市豊平区", "緯度": 43.017152, "経度": 141.40666 }, "geometry": { "type": "Point", "coordinates": [ 141.40666, 43.017152 ] } },
{ "type": "Feature", "properties": { "種別": "認可保育所", "名称": "新川北保育園", "定員": 60, "住所": "札幌市北区新川4条11丁目5番23号", "区": "札幌市北区", "緯度": 43.108577, "経度": 141.307619 }, "geometry": { "type": "Point", "coordinates": [ 141.307619, 43.108577 ] } },
{ "type": "Feature", "properties": { "種別": "認可保育所", "名称": "札幌はこぶね保育園", "定員": 60, "住所": "札幌市北区北7条西6丁目2番33号", "区": "札幌市北区", "緯度": 43.069222, "経度": 141.345396 }, "geometry": { "type": "Point", "coordinates": [ 141.345396, 43.069222 ] } },
{ "type": "Feature", "properties": { "種別": "認可保育所", "名称": "風の子保育園", "定員": 60, "住所": "札幌市北区百合が原4丁目8番31号", "区": "札幌市北区", "緯度": 43.128898, "経度": 141.362125 }, "geometry": { "type": "Point", "coordinates": [ 141.362125, 43.128898 ] } },
{ "type": "Feature", "properties": { "種別": "認可保育所", "名称": "はぐくみ保育園", "定員": 60, "住所": "札幌市北区北26条西3丁目2番20号", "区": "札幌市北区", "緯度": 43.093559, "経度": 141.344337 }, "geometry": { "type": "Point", "coordinates": [ 141.344337, 43.093559 ] } },
{ "type": "Feature", "properties": { "種別": "認可保育所", "名称": "子どもの園保育園", "定員": 60, "住所": "札幌市北区北11条西5丁目", "区": "札幌市北区", "緯度": 43.074347, "経度": 141.346396 }, "geometry": { "type": "Point", "coordinates": [ 141.346396, 43.074347 ] } },
{ "type": "Feature", "properties": { "種別": "認可保育所", "名称": "新川西さくらこ保育園", "定員": 60, "住所": "札幌市北区新川西1条4丁目2番45号", "区": "札幌市北区", "緯度": 43.124774, "経度": 141.278049 }, "geometry": { "type": "Point", "coordinates": [ 141.278049, 43.124774 ] } },
{ "type": "Feature", "properties": { "種別": "認可保育所", "名称": "札幌創成保育園", "定員": 60, "住所": "札幌市北区北15条西1丁目2番18号", "区": "札幌市北区", "緯度": 43.079718, "経度": 141.351197 }, "geometry": { "type": "Point", "coordinates": [ 141.351197, 43.079718 ] } },
{ "type": "Feature", "properties": { "種別": "認可保育所", "名称": "あいの里せせらぎ保育園", "定員": 60, "住所": "札幌市北区あいの里3条7丁目2番6号", "区": "札幌市北区", "緯度": 43.159451, "経度": 141.4068 }, "geometry": { "type": "Point", "coordinates": [ 141.4068, 43.159451 ] } },
{ "type": "Feature", "properties": { "種別": "認可保育所", "名称": "新琴似中央保育園", "定員": 70, "住所": "札幌市北区新琴似5条3丁目1番63号", "区": "札幌市北区", "緯度": 43.109006, "経度": 141.32801 }, "geometry": { "type": "Point", "coordinates": [ 141.32801, 43.109006 ] } },
{ "type": "Feature", "properties": { "種別": "認可保育所", "名称": "アートチャイルドケア新琴似", "定員": 78, "住所": "札幌市北区新琴似8条1丁目4番33号", "区": "札幌市北区", "緯度": 43.112699, "経度": 141.335158 }, "geometry": { "type": "Point", "coordinates": [ 141.335158, 43.112699 ] } },
{ "type": "Feature", "properties": { "種別": "認可保育所", "名称": "篠路中央保育園", "定員": 90, "住所": "札幌市北区篠路2条9丁目1番1号", "区": "札幌市北区", "緯度": 43.141296, "経度": 141.368472 }, "geometry": { "type": "Point", "coordinates": [ 141.368472, 43.141296 ] } },
{ "type": "Feature", "properties": { "種別": "認可保育所", "名称": "屯田保育園", "定員": 90, "住所": "札幌市北区屯田5条6丁目2番16号", "区": "札幌市北区", "緯度": 43.131547, "経度": 141.32981 }, "geometry": { "type": "Point", "coordinates": [ 141.32981, 43.131547 ] } },
{ "type": "Feature", "properties": { "種別": "認可保育所", "名称": "愛和えるむ保育園", "定員": 90, "住所": "札幌市北区北8条西3丁目32番地", "区": "札幌市北区", "緯度": 43.070858, "経度": 141.350547 }, "geometry": { "type": "Point", "coordinates": [ 141.350547, 43.070858 ] } },
{ "type": "Feature", "properties": { "種別": "認可保育所", "名称": "三和新琴似保育園", "定員": 90, "住所": "札幌市北区新琴似6条12丁目1番23号", "区": "札幌市北区", "緯度": 43.118548, "経度": 141.315228 }, "geometry": { "type": "Point", "coordinates": [ 141.315228, 43.118548 ] } },
{ "type": "Feature", "properties": { "種別": "認可保育所", "名称": "あかつき篠路保育園", "定員": 90, "住所": "札幌市北区篠路1条6丁目2番7号", "区": "札幌市北区", "緯度": 43.13913, "経度": 141.361417 }, "geometry": { "type": "Point", "coordinates": [ 141.361417, 43.13913 ] } },
{ "type": "Feature", "properties": { "種別": "認可保育所", "名称": "札幌こばと保育園", "定員": 90, "住所": "札幌市北区新琴似11条15丁目1番38号", "区": "札幌市北区", "緯度": 43.129685, "経度": 141.316172 }, "geometry": { "type": "Point", "coordinates": [ 141.316172, 43.129685 ] } },
{ "type": "Feature", "properties": { "種別": "認可保育所", "名称": "しんことに清香保育園", "定員": 90, "住所": "札幌市北区新琴似11条5丁目1番30号", "区": "札幌市北区", "緯度": 43.120076, "経度": 141.333032 }, "geometry": { "type": "Point", "coordinates": [ 141.333032, 43.120076 ] } },
{ "type": "Feature", "properties": { "種別": "認可保育所", "名称": "あいの里保育園", "定員": 90, "住所": "札幌市北区あいの里2条2丁目12番4号", "区": "札幌市北区", "緯度": 43.162351, "経度": 141.388108 }, "geometry": { "type": "Point", "coordinates": [ 141.388108, 43.162351 ] } },
{ "type": "Feature", "properties": { "種別": "認可保育所", "名称": "屯田桃の花保育園", "定員": 90, "住所": "札幌市北区屯田9条3丁目1番35号", "区": "札幌市北区", "緯度": 43.14191, "経度": 141.342609 }, "geometry": { "type": "Point", "coordinates": [ 141.342609, 43.14191 ] } },
{ "type": "Feature", "properties": { "種別": "認可保育所", "名称": "拓北ひまわり保育園", "定員": 100, "住所": "札幌市北区拓北3条2丁目7番12号", "区": "札幌市北区", "緯度": 43.150972, "経度": 141.376749 }, "geometry": { "type": "Point", "coordinates": [ 141.376749, 43.150972 ] } },